adWord,appShow,approve,businessZones,city,companyFullName,companyId,companyLabelList,companyLogo,companyShortName,companySize,createTime,deliver,district,education,explain,financeStage,firstType,formatCreateTime,gradeDescription,hitags,imState,industryField,industryLables,isSchoolJob,jobNature,lastLogin,latitude,linestaion,longitude,pcShow,plus,positionAdvantage,positionId,positionLables,positionName,promotionScoreExplain,publisherId,resumeProcessDay,resumeProcessRate,salary,score,secondType,skillLables,stationname,subwayline,thirdType,workYear
0,0,1,,深圳,深圳市乐易网络股份有限公司,33627,"技术大牛,两次年度旅游,福利倍儿好,年终奖丰厚",i/image/M00/57/05/CgqKkVfOIv6AQwyPAAEg94dso0Q147.png,乐易网络,150-500人,2018-12-26 15:49:41,0,南山区,硕士,,A轮,开发|测试|运维类,15:49发布,,,today,"移动互联网,游戏","大数据,游戏,MySQL,SQLServer",0,全职,1545808840000,22.533413,2号线/蛇口线_科苑;1号线/罗宝线_高新园;1号线/罗宝线_深大,113.94604,0,,"精品手游,高配团队,年终奖,带薪旅行",5195131,"大数据,游戏,MySQL,SQLServer",数据分析,,569371,0,100,10k-20k,0,数据开发,"MySQL,SQLServer",深大,2号线/蛇口线,数据分析,1-3年
0,0,1,,深圳,五八生活圈（深圳）科技有限公司,434092,,i/image2/M01/7A/DC/CgoB5ltxI9SACWurAABPuq3ElYU994.jpg,五八生活圈（深圳）科技有限公司,50-150人,2018-12-26 11:11:26,0,龙岗区,大专,,上市公司,运营|编辑|客服类,11:11发布,,,today,"移动互联网,电子商务",,0,全职,1545788211000,22.614636,5号线/环中线_上水径;5号线/环中线_下水径;5号线/环中线_长龙,114.11043,0,,"五险一金,旅游,节假日福利,年终奖金",5173894,,数据分析,,11454232,0,0,15k-25k,0,运营,,上水径,5号线/环中线,数据运营,3-5年
0,0,1,,深圳,上海懒人易健科技有限公司,214114,,i/image3/M00/54/04/Cgq2xlsPjQWAIPR1AAAd0T_4rzQ376.png,懒人科技,50-150人,2018-12-26 15:13:59,0,南山区,本科,,天使轮,产品|需求|项目类,15:13发布,,,sevenDays,移动互联网,"医疗健康,体育,BI,数据运营,SQL",0,全职,1545299923000,0.0,,0.0,0,,"独立自主,海量数据,节奏快,创新驱动",5173528,"医疗健康,体育,BI,数据运营,SQL",数据分析师,,11698904,1,35,15k-27k,0,数据分析,"BI,数据运营,SQL",,,BI,3-5年
0,0,1,,深圳,深圳数位传媒科技有限公司,135283,"大数据弄潮儿,大牛云集,高并发,14薪起",i/image/M00/BE/5B/Cgp3O1jMx5WAK6qqAAAhwXv4yuM019.jpg,数位科技,150-500人,2018-12-26 11:48:18,0,南山区,本科,,B轮,开发|测试|运维类,11:48发布,,,today,"移动互联网,数据服务","大数据,移动互联网,数据处理,数据挖掘",0,全职,1545803639000,22.523714,2号线/蛇口线_后海;2号线/蛇口线_科苑;11号线/机场线_后海,113.940802,0,,"14薪起,股票期权,技术大牛,氛围融洽",4864988,"大数据,移动互联网,数据处理,数据挖掘",数据分析师,,4549189,1,100,20k-30k,0,数据开发,"数据处理,数据挖掘",科苑,2号线/蛇口线,数据分析,5-10年
0,0,1,"深圳湾,后海,科技园",深圳,武汉市追忆那年网络科技有限公司,115706,"股票期权,交通补助,扁平管理,领导好",i/image/M00/67/5E/CgpEMlmfq-CAE4qkAAAcCLUwk3k272.png,忆年,50-150人,2018-12-26 09:36:16,0,南山区,本科,,A轮,产品|需求|项目类,09:36发布,,,today,"移动互联网,社交网络",社交,0,全职,1545803516000,22.524429,2号线/蛇口线_后海;2号线/蛇口线_科苑;11号线/机场线_后海,113.940711,0,,"SNS,薪资优渥,社交大咖",5430691,社交,数据分析师,,4049444,1,71,15k-30k,0,数据分析,,科苑,2号线/蛇口线,数据分析,3-5年
0,0,1,"深圳湾,大冲,科技园",深圳,万汇互联（深圳）科技有限公司,115637,"年终分红,绩效奖金,股票期权,带薪年假",i/image2/M01/5A/73/CgoB5lsozOqAZ2XmAAATE0isTPU169.jpg,万汇互联,150-500人,2018-12-26 14:46:35,0,南山区,本科,,天使轮,运营|编辑|客服类,14:46发布,,,today,"社交网络,金融",,0,全职,1545805134000,113.953808,,22.533503,0,,"弹性工作,绩效奖金,节日福利,团建活动",5237530,"策略运营,产品运营",数据分析师,,4043963,2,63,7k-13k,0,运营,"策略运营,产品运营",,,数据运营,1-3年
0,0,1,"南新路口,科技园,南头",深圳,深圳市和讯华谷信息技术有限公司,917,"五险一金,文体活动,团建旅游,美味晚餐",i/image/M00/37/20/CgqKkVdfms6Ac6dNAABY3gBvuqI944.jpg,极光,500-2000人,2018-12-26 13:39:14,0,南山区,本科,,上市公司,产品|需求|项目类,13:39发布,,,today,"移动互联网,数据服务",,0,全职,1545809506000,22.53620103,1号线/罗宝线_桃园;1号线/罗宝线_大新;11号线/机场线_南山,113.91877291,0,,五险一金、年度14薪、工作餐、下午茶等,917502,,数据分析师,,2153176,1,89,8k-15k,0,数据分析,,大新,1号线/罗宝线,数据分析,1-3年
0,0,1,,深圳,深圳市大头兄弟文化传播有限公司,24510,"年底双薪,年终奖,短视频应用,千万级用户",i/image2/M01/7C/C6/CgotOVt04iuANKVRAAC4LQhjoG8343.jpg,逗拍,50-150人,2018-12-26 14:40:01,0,宝安区,大专,,A轮,开发|测试|运维类,14:40发布,,,today,"移动互联网,文化娱乐",,0,全职,1545787630000,22.571452,1号线/罗宝线_坪洲;1号线/罗宝线_西乡;11号线/机场线_碧海湾,113.861484,0,,"年终奖,旅游,下午茶包餐,更多福利",5148757,"数据架构,Spark,Hadoop,数据处理",数据分析工程师,,354711,1,100,15k-30k,0,数据开发,"数据架构,Spark,Hadoop,数据处理",坪洲,1号线/罗宝线,数据分析,3-5年
0,0,1,"科技园,科技园,大冲,大冲",深圳,深圳白骑士大数据有限公司,128065,"专项奖金,大数据,反欺诈,带薪年假",i/image/M00/3D/89/Cgp3O1dyQFiAS337AAAJ8SnzRcM883.png,深圳白骑士大数据有限公司,50-150人,2018-12-24 09:23:14,0,南山区,本科,,A轮,产品|需求|项目类,2天前发布,,,today,"企业服务,金融",,0,全职,1545786535000,22.545687,1号线/罗宝线_高新园;1号线/罗宝线_深大,113.945856,0,,"平台大,创新型,有挑战",2428796,,数据分析师,,4845927,1,28,15k-30k,0,数据分析,,深大,1号线/罗宝线,数据分析,3-5年
0,0,1,"大冲,科技园",深圳,海南新浪爱问普惠科技有限公司,175085,"午餐补助,通讯津贴,带薪年假,交通补助",i/image3/M00/19/E7/Cgq2xlp5ZHWACZ9qAAA0HOXbMCg842.png,海南新浪爱问普惠科技有限公司,150-500人,2018-12-24 15:05:58,0,南山区,本科,,未融资,产品|需求|项目类,2天前发布,,,today,金融,大数据,0,全职,1545789811000,22.535129,2号线/蛇口线_科苑;1号线/罗宝线_高新园;1号线/罗宝线_深大,113.952487,0,,"年终奖,餐补,员工旅游,年度体检",4108846,大数据,数据分析师,,11796966,3,100,15k-20k,0,数据分析,,深大,2号线/蛇口线,数据分析,3-5年
0,0,1,坂田,深圳,深圳开思时代科技有限公司,67197,"节日礼物,年底双薪,股票期权,扁平管理",i/image2/M01/80/77/CgoB5lt-As2AEvhgAABLLhD2bGU967.jpg,开思时代,500-2000人,2018-12-22 10:47:39,0,龙岗区,本科,,B轮,开发|测试|运维类,2018-12-22,,,today,"移动互联网,电子商务","大数据,电商,数据挖掘",0,全职,1545809704000,22.630102,5号线/环中线_五和;5号线/环中线_坂田;5号线/环中线_杨美,114.066793,0,,"年度双薪,行业龙头",5091065,"大数据,电商,数据挖掘",数据分析师,,1695720,2,28,10k-20k,0,数据开发,数据挖掘,杨美,5号线/环中线,数据分析,3-5年
0,0,1,"车公庙,上沙,香蜜湖",深圳,华泰期货有限公司,401557,"带薪年假,定期体检",i/image2/M01/71/32/CgoB5ltZOqGAQHstAACDQKibGzI220.png,华泰期货,500-2000人,2018-12-20 16:17:45,0,福田区,硕士,,不需要融资,开发|测试|运维类,2018-12-20,,,today,金融,金融,0,全职,1545788253000,22.535769,1号线/罗宝线_香蜜湖;1号线/罗宝线_车公庙;11号线/机场线_车公庙;7号线_农林;7号线_车公庙;7号线_上沙;9号线_下沙;9号线_车公庙,114.029564,0,,"金融科技,精英团队,假期福利",5067015,金融,数据分析师,,11020726,0,29,20k-40k,0,数据开发,,农林,7号线,数据分析,1-3年
0,0,1,"笋岗,蔡屋围",深圳,深圳前海联动云汽车租赁有限公司,146817,"O2O,带薪年假,交通补助,午餐补助",i/image/M00/75/44/CgqKkVgzorKALk3PAAAMc5IZxVc719.jpg,前海联动云,2000人以上,2018-12-17 11:14:49,0,罗湖区,本科,,不需要融资,产品|需求|项目类,2018-12-17,,,overSevenDays,"O2O,生活服务",汽车,0,全职,1544064380000,22.557567,3号线/龙岗线_通新岭;3号线/龙岗线_红岭;7号线_红岭北;7号线_笋岗;9号线_泥岗;9号线_红岭北;9号线_园岭;9号线_红岭,114.107071,0,,共享汽车 风口行业 食堂 健身房,5298474,汽车,数据分析师,,8313685,0,0,7k-14k,0,数据分析,,红岭北,7号线,数据分析,1-3年
0,0,1,"南油,后海",深圳,北京字节跳动科技有限公司,62,"扁平管理,弹性工作,大厨定制三餐,就近租房补贴",i/image2/M01/79/0A/CgoB5ltr2A-AM5SFAADbT9jQCn841.jpeg,字节跳动,2000人以上,2018-12-25 23:06:43,0,南山区,本科,,C轮,开发|测试|运维类,1天前发布,,,today,"移动互联网,数据服务",,1,全职,1545809090000,22.511996,2号线/蛇口线_登良;11号线/机场线_南山,113.925762,0,,弹性工作，免费三餐，租房补贴，休闲下午茶,5453765,数据挖掘,数据分析实习生（可转正）,,9798036,0,0,5k-10k,0,数据开发,数据挖掘,登良,2号线/蛇口线,其他数据开发,应届毕业生
0,0,1,,深圳,深圳第一卫科技有限公司,381283,"六险一金,13-16薪,绩效奖金,节日礼物",i/image2/M01/B2/85/CgoB5lwBIHaAG2szAACsJt7LEck368.jpg,第一卫,500-2000人,2018-12-17 11:50:50,0,龙华新区,大专,,未融资,产品|需求|项目类,2018-12-17,,,threeDays,电子商务,"电商,大数据",0,全职,1545703303000,22.679499,,113.993764,0,,绩效奖金 发展空间 包住/房补 健身房,5359531,"电商,大数据",数据分析师,,4810116,2,100,6k-10k,0,数据分析,,,,数据分析,3-5年
0,0,1,"南油,海王大厦,后海",深圳,深圳市优阅达数据科技有限公司,53276,"技能培训,节日礼物,年底双薪,带薪年假",image1/M00/1D/24/CgYXBlUpMseARbqhAABYXZneQV4028.png,优阅达,15-50人,2018-12-24 14:28:47,0,南山区,本科,,不需要融资,开发|测试|运维类,2天前发布,,,today,"企业服务,数据服务","大数据,数据挖掘",0,全职,1545804640000,22.516651,2号线/蛇口线_登良;11号线/机场线_南山,113.927032,0,,"不打卡,专业培训,周末双休,五险一金",4663052,"大数据,数据挖掘",数据分析（初级）,,10954367,0,0,4k-8k,0,数据开发,数据挖掘,登良,2号线/蛇口线,数据分析,1年以下
0,0,1,"深圳湾,南油,后海",深圳,深圳市小赢科技有限责任公司,24587,"五险一金,两餐补助,超低息员工贷,年底奖金",i/image2/M01/B1/68/CgoB5lv-WkSAH5NIAAAHsuZjfIw784.png,小赢科技,500-2000人,2018-12-20 10:10:38,0,南山区,本科,,上市公司,开发|测试|运维类,2018-12-20,,,today,金融,,0,全职,1545803636000,22.519131,2号线/蛇口线_登良;2号线/蛇口线_后海;2号线/蛇口线_科苑;11号线/机场线_后海,113.941779,0,,"绩效奖金,弹性工作,五险一金",5243170,,数据分析师,,292652,1,67,20k-35k,0,数据开发,,登良,2号线/蛇口线,数据分析,5-10年
0,0,1,"振华路,上步,华强北",深圳,歧黄商业管理咨询有限公司,415481,,i/image2/M01/66/80/CgoB5ltC6C-ADmbuAAETgoGhTIQ079.png,歧黄商业管理咨询有限公司,少于15人,2018-12-17 09:57:47,0,福田区,本科,,不需要融资,开发|测试|运维类,2018-12-17,,,overSevenDays,"企业服务,数据服务",大数据,1,全职,1545011859000,22.542374,2号线/蛇口线_岗厦北;2号线/蛇口线_华强北;2号线/蛇口线_燕南;1号线/罗宝线_科学馆;1号线/罗宝线_华强路;3号线/龙岗线_华新;7号线_赤尾;7号线_华强南;7号线_华强北;7号线_华新,114.082005,0,,创始元老,5049709,大数据,数据分析,,11212764,0,0,6k-12k,0,数据开发,,华强北,2号线/蛇口线,数据分析,应届毕业生
0,0,1,坂田,深圳,深圳市宏博伟智科技有限公司,129585,"绩效奖金,年终分红,带薪年假,提供住宿",i/image/M00/2B/A8/CgqKkVc1iEiAH-77AABR92vM7Mw383.png,宏博伟智,50-150人,2018-12-24 11:16:53,0,龙岗区,本科,,不需要融资,开发|测试|运维类,2天前发布,,,today,电子商务,,0,全职,1545786075000,22.628562,5号线/环中线_坂田;5号线/环中线_杨美,114.081583,0,,"发展空间大,福利待遇优,学习机会多",5289050,"数据挖掘,MySQL",数据分析经理,,5072887,0,0,15k-20k,0,数据开发,"数据挖掘,MySQL",杨美,5号线/环中线,数据分析,3-5年
0,0,1,"南油,蛇口,前海",深圳,深圳市丰巢科技有限公司,26088,"五险一金,通讯津贴,交通补助,带薪年假",image1/M00/40/38/CgYXBlXC_HmALwgOAAAdmGKkGUI260.jpg,深圳市丰巢科技有限公司,500-2000人,2018-12-17 14:43:50,0,南山区,本科,,A轮,产品|需求|项目类,2018-12-17,,,today,"移动互联网,O2O","电商,物流,SPSS",0,全职,1545804938000,22.509455,,113.919418,0,,数据分析,4306251,"电商,物流,SPSS",高级数据分析师,,6898478,1,4,25k-40k,0,数据分析,SPSS,,,数据分析,3-5年
0,0,1,"水贝,翠竹,洪湖",深圳,邓韩贝信息技术咨询（上海）有限公司,479915,,i/image2/M01/AF/34/CgotOVv3nE2ACxZCAABeVRgc4VA822.jpg,dunnhumby 邓韩贝,50-150人,2018-12-26 10:15:26,0,罗湖区,本科,,不需要融资,产品|需求|项目类,10:15发布,,,today,"数据服务,其他",大数据,0,全职,1545790490000,22.571168,3号线/龙岗线_田贝;3号线/龙岗线_水贝;5号线/环中线_太安;7号线_洪湖;7号线_田贝;7号线_太安,114.125058,0,,20天带薪年假，高端医疗保险，扁平化管理,5425301,大数据,(高级)数据分析师,,12077004,0,0,15k-20k,0,数据分析,,洪湖,7号线,数据分析,3-5年
0,0,1,,深圳,深圳微众税银信息服务有限公司,321001,"年底双薪,午餐补助,年终分红,绩效奖金",i/image3/M00/3A/04/Cgq2xlqrmUuAceylAAEqBwqwwcw567.jpg,微众税银,150-500人,2018-12-21 13:41:53,0,南山区,硕士,,C轮,产品|需求|项目类,2018-12-21,,,today,"金融,数据服务","金融,可视化",0,全职,1545786920000,22.545767,1号线/罗宝线_高新园;1号线/罗宝线_深大,113.940875,0,,"发展空间,公司福利好",5445117,"金融,可视化",高级数据分析师,,2155375,1,100,20k-30k,0,数据分析,可视化,深大,1号线/罗宝线,数据分析,5-10年
0,0,1,"西乡,桃源居",深圳,深圳市爱宝惟生物科技有限公司,49534,"技能培训,绩效奖金,年度旅游,管理规范",image1/M00/00/81/CgYXBlTUXdeAaBWVAABBQtSf5WA612.jpg,爱宝惟生物科技,15-50人,2018-12-11 14:55:43,0,宝安区,本科,,A轮,开发|测试|运维类,2018-12-11,,,sevenDays,"移动互联网,医疗健康","大数据,移动互联网,数据挖掘,数据处理",0,全职,1545491156000,22.59503,,113.87394,0,,"周末双休
朝九晚六
五险一金
年度旅游",5367701,"大数据,移动互联网,数据挖掘,数据处理",大数据分析师,,8053755,0,0,15k-25k,0,数据开发,"数据挖掘,数据处理",,,数据分析,1-3年
0,0,1,"龙华,美丽365花园",深圳,富泰华工业（深圳）有限公司,15647,"年底双薪,带薪年假,全新的平台,绩效奖金",image1/M00/00/1D/Cgo8PFTUWGSAdKQxAABLGb7pJRs364.jpg,富士康科技集团,2000人以上,2018-12-26 08:13:17,0,宝安区,硕士,,上市公司,开发|测试|运维类,08:13发布,,,today,"电子商务 ,数据服务","大数据,云计算",0,全职,1545809556000,22.648808,,114.051609,0,,五险一金 年底双薪 加班补贴 大平台,5315347,"大数据,云计算",数据分析算法经理/工程师,,11986108,3,11,18k-35k,0,数据开发,,,,数据分析,3-5年
0,0,1,"科技园,深圳湾",深圳,岩心科技（深圳）有限公司,107664,"美女如云,股票期权,高速发展,扁平管理",i/image/M00/73/04/Cgp3O1gteKCAMVdbAAApNp8Trz8758.png,AKULAKU,500-2000人,2018-12-25 11:40:40,0,南山区,本科,,C轮,产品|需求|项目类,1天前发布,,,today,"移动互联网,金融","电商,大数据,BI",0,全职,1545804618000,22.528936,2号线/蛇口线_后海;2号线/蛇口线_科苑;1号线/罗宝线_深大;11号线/机场线_后海,113.944721,0,,"项目前景好,成长空间大,团队牛人多,期权激励",3233747,"电商,大数据,BI",数据分析师,,3270902,1,76,10k-20k,0,数据分析,BI,深大,2号线/蛇口线,数据分析,1-3年
0,0,1,"科技园,深圳湾,南山医院",深圳,深圳市大疆创新科技有限公司,21775,"朝阳行业,丰厚薪资待遇,年终发车,扁平管理",i/image3/M00/15/FC/CgpOIFpyw7qASEOJAACCJ6iqYFc65.jpeg,DJI大疆创新,2000人以上,2018-12-17 16:21:33,0,南山区,本科,,未融资,产品|需求|项目类,2018-12-17,,,threeDays,"移动互联网,硬件",,0,全职,1545618355000,22.536797,2号线/蛇口线_科苑;1号线/罗宝线_高新园;1号线/罗宝线_深大,113.952222,0,,"大平台,福利好,机会多,前景广",4948872,商业,数据分析师,,10885112,0,7,15k-25k,0,数据分析,商业,深大,2号线/蛇口线,数据分析,3-5年
0,0,1,"前海,南头,科技园",深圳,腾讯科技(深圳)有限公司,451,"免费班车,成长空间,年度旅游,岗位晋升",image1/M00/00/03/CgYXBlTUV_qALGv0AABEuOJDipU378.jpg,腾讯,2000人以上,2018-12-24 07:36:40,0,南山区,本科,,上市公司,开发|测试|运维类,2天前发布,,"免费班车,年轻团队,学习机会,mac办公,定期团建,开工利是红包",today,"移动互联网 ,游戏","教育,电商,数据库开发,数据挖掘,MySQL",0,全职,1545806943000,22.540582,1号线/罗宝线_深大;1号线/罗宝线_桃园,113.933759,0,,风口行业 在线教育 福利待遇好,5321926,"教育,电商,数据库开发,数据挖掘,MySQL",数据分析高级工程师,,3309774,2,100,20k-40k,0,数据开发,"数据库开发,数据挖掘,MySQL",桃园,1号线/罗宝线,数据分析,5-10年
0,0,1,"科技园,南山医院,大冲",深圳,健康元药业集团股份有限公司,45711,"年底双薪,节日礼物,带薪年假,岗位晋升",image1/M00/12/A5/CgYXBlUD_K2AakvbAACs64hK3oQ629.png,健康元,2000人以上,2018-12-20 09:31:34,0,南山区,硕士,,上市公司,运营|编辑|客服类,2018-12-20,,,today,医疗健康,,0,全职,1545788436000,22.55665,,113.94452,0,,双休 住房补 交通补 餐补 双薪 年终奖,5379055,,数据分析师,,878471,2,60,10k-20k,0,运营,,,,数据运营,不限
0,0,1,"上梅林,莲花北村",深圳,深圳依时货拉拉科技有限公司,41178,"技能培训,专项奖金,绩效奖金,扁平管理",image1/M00/00/66/Cgo8PFTUXWSACW7OAACKSYYZpsc111.png,货拉拉,2000人以上,2018-12-24 19:50:12,0,福田区,本科,,C轮,开发|测试|运维类,2天前发布,,,today,"移动互联网,O2O","物流,移动互联网",0,全职,1545804866000,22.569077,4号线/龙华线_莲花北;4号线/龙华线_上梅林;9号线_梅村;9号线_上梅林;9号线_孖岭,114.059631,0,,"货拉拉,互联网公司",5061208,"物流,移动互联网",高级数据分析工程师(J11469),,765920,4,13,20k-40k,0,数据开发,,孖岭,4号线/龙华线,数据分析,3-5年
0,0,1,"白石洲,大冲,科技园",深圳,智言科技(深圳)有限公司,164895,"年底双薪,绩效奖金,通讯津贴,扁平管理",i/image2/M00/4D/32/CgotOVr8D5mAAWj4AADj0KOQvAQ112.png,智言科技,50-150人,2018-12-24 14:02:01,0,南山区,本科,,A轮,开发|测试|运维类,2天前发布,,,disabled,"数据服务,其他",,0,全职,1545802526000,22.538684,1号线/罗宝线_白石洲;1号线/罗宝线_高新园;1号线/罗宝线_深大,113.957429,0,,大牛团队，发展空前大，薪酬福利好,5330202,数据挖掘,数据分析师,,7971928,1,68,10k-20k,0,数据开发,数据挖掘,深大,1号线/罗宝线,数据分析,1-3年
0,0,1,"后海,深圳湾,科技园",深圳,深圳市小赢科技有限责任公司,24587,"五险一金,两餐补助,超低息员工贷,年底奖金",i/image2/M01/B1/68/CgoB5lv-WkSAH5NIAAAHsuZjfIw784.png,小赢科技,500-2000人,2018-12-21 14:18:09,0,南山区,本科,,上市公司,产品|需求|项目类,2018-12-21,,,today,金融,理财,0,全职,1545803636000,22.519682,2号线/蛇口线_登良;2号线/蛇口线_后海;2号线/蛇口线_科苑;11号线/机场线_后海,113.94225,0,,五险一金、午餐补助、舒适环境、弹性工作制,4311580,理财,高级数据分析师,,292652,1,67,20k-35k,0,产品经理,,登良,2号线/蛇口线,其他产品经理,3-5年
0,0,1,"莲花二村,莲花一村,岗厦",深圳,平安证券股份有限公司,164,"技能培训,年度旅游,岗位晋升,管理规范",image2/M00/05/C9/CgpzWlX36SmAVG1NAABm7RfF_o4083.png,平安证券,2000人以上,2018-12-24 00:00:04,0,福田区,本科,,上市公司,开发|测试|运维类,2天前发布,,,disabled,金融,"大数据,数据挖掘",0,全职,1545100651000,22.548153,2号线/蛇口线_莲花西;2号线/蛇口线_福田;2号线/蛇口线_市民中心;2号线/蛇口线_岗厦北;4号线/龙华线_市民中心;4号线/龙华线_少年宫;4号线/龙华线_莲花北;3号线/龙岗线_福田;3号线/龙岗线_少年宫;3号线/龙岗线_莲花村;11号线/机场线_福田,114.063599,0,,平台大,4788187,"大数据,数据挖掘",数据分析师,,6695820,0,0,15k-30k,0,数据开发,数据挖掘,少年宫,2号线/蛇口线,数据分析,不限
0,0,1,"车公庙,香蜜湖",深圳,深圳市客路网络科技有限公司,28121,"零食水果供应,带薪年假,绩效奖金,扁平管理",i/image/M00/00/AD/Cgp3O1ZSwWuATjtNAAAfDHrmDjo001.png,KLOOK 客路旅行,500-2000人,2018-12-24 10:11:03,0,福田区,本科,,D轮及以上,产品|需求|项目类,2天前发布,,,today,"移动互联网,旅游",,0,全职,1545806777000,22.53334989,1号线/罗宝线_香蜜湖;1号线/罗宝线_车公庙;11号线/机场线_车公庙;7号线_农林;7号线_车公庙;7号线_上沙;9号线_下沙;9号线_车公庙,114.03006011,0,,国际化平台+飞速发展+技术大牛+丰厚薪资,1928953,,数据分析,,366796,1,100,10k-20k,0,数据分析,,农林,7号线,数据分析,1-3年
0,0,1,"前海,南头,科技园",深圳,腾讯科技(深圳)有限公司,451,"免费班车,成长空间,年度旅游,岗位晋升",image1/M00/00/03/CgYXBlTUV_qALGv0AABEuOJDipU378.jpg,腾讯,2000人以上,2018-12-24 07:36:39,0,南山区,本科,,上市公司,开发|测试|运维类,2天前发布,,"免费班车,年轻团队,学习机会,mac办公,定期团建,开工利是红包",today,"移动互联网 ,游戏",,0,全职,1545806943000,22.540822,1号线/罗宝线_深大;1号线/罗宝线_桃园,113.934457,0,,腾讯平台 福利待遇好 技术成长,5431740,"Hadoop,Spark,数据挖掘",数据分析高级工程师,,3309774,2,100,20k-40k,0,数据开发,"Hadoop,Spark,数据挖掘",桃园,1号线/罗宝线,数据分析,3-5年
0,0,1,"南山医院,科技园,南头",深圳,深圳市财宝网络技术服务有限公司,40531,"年底双薪,节日礼物,绩效奖金,年度旅游",image1/M00/00/64/CgYXBlTUXVuAP3p_AABNsOQF7uQ900.png,财宝,150-500人,2018-12-20 09:19:25,0,南山区,本科,,不需要融资,开发|测试|运维类,2018-12-20,,,today,"移动互联网,金融",,0,全职,1545787595000,22.54097,1号线/罗宝线_深大;1号线/罗宝线_桃园,113.93418,0,,"五险一金,带薪年假,节日福利,年底双薪",4950973,"MySQL,数据挖掘,数据架构",数据分析师,,9265583,1,9,4k-6k,0,数据开发,"MySQL,数据挖掘,数据架构",桃园,1号线/罗宝线,数据分析,1-3年
0,0,1,,深圳,顺丰速运有限公司,210133,"年底双薪,绩效奖金,带薪年假,午餐补助",i/image/M00/38/83/CgpEMllDQSKAARc8AAHNwrMNgpQ604.png,顺丰速运,2000人以上,2018-12-17 10:22:18,0,南山区,本科,,上市公司,产品|需求|项目类,2018-12-17,,,today,生活服务,物流,0,全职,1545788183000,22.524499,2号线/蛇口线_后海;2号线/蛇口线_科苑;11号线/机场线_后海,113.940213,0,,上市公司,5361807,物流,中级数据分析师,,8093858,4,1,15k-25k,0,数据分析,,科苑,2号线/蛇口线,数据分析,1-3年
0,0,1,"深圳湾,蛇口,后海",深圳,深圳市前海数据服务有限公司,102580,"免费班车,股票期权,带薪年假,绩效奖金",i/image/M00/05/DD/CgqKkVbL0geAXXz2AAAwe58soSE421.jpg,前海数据,15-50人,2018-12-17 11:35:09,0,南山区,本科,,不需要融资,产品|需求|项目类,2018-12-17,,,threeDays,数据服务,,0,全职,1545720782000,22.502665,2号线/蛇口线_湾厦;2号线/蛇口线_海月;2号线/蛇口线_登良,113.942584,0,,"大数据领域,股东背景,互联网产品,工作餐",4248912,,数据分析师,,2961863,0,0,10k-15k,0,数据分析,,海月,2号线/蛇口线,数据分析,3-5年
0,0,1,"科技园,前海,南头",深圳,亿达信息技术（深圳）有限公司,168557,,i/image/M00/91/41/Cgp3O1iX5ryAG-T-AAAOmZ4LcU4462.png,YIDATEC,2000人以上,2018-12-12 17:13:50,0,南山区,大专,,不需要融资,产品|需求|项目类,2018-12-12,,"购买社保,免费休闲游,试用期上公积金,免费下午茶,免费体检,一年多次调薪,6险1金",disabled,"移动互联网,游戏","广告营销,SPSS",0,全职,1545700375000,22.540534,1号线/罗宝线_深大;1号线/罗宝线_桃园,113.933755,0,,"地铁周边,福利待遇好",4370848,"广告营销,SPSS",数据分析,,7082393,0,0,7k-9k,0,数据分析,SPSS,桃园,1号线/罗宝线,数据分析,1-3年
0,0,1,,深圳,招商证券股份有限公司,67217,"全牌照券商,双A级,上市公司,优质培训体系",image1/M00/23/14/CgYXBlVHFbGAIjB7AABHqErvGLA347.jpg,招商证券信息技术中心,2000人以上,2018-12-05 07:55:46,0,南山区,不限,,上市公司,开发|测试|运维类,2018-12-05,,,disabled,"招聘,其他","大数据,数据挖掘",0,全职,1545808099000,22.530488,2号线/蛇口线_科苑;1号线/罗宝线_高新园;1号线/罗宝线_深大,113.948829,0,,"金融,管理",5337168,"大数据,数据挖掘",中高级数据分析师,,2193534,1,82,25k-45k,0,数据开发,数据挖掘,深大,2号线/蛇口线,数据分析,3-5年
0,0,1,"新安,翻身路",深圳,维沃移动通信有限公司,19875,"年终分红,带薪年假,年度旅游,岗位晋升",image1/M00/00/25/Cgo8PFTUWH-Ab57wAABKOdLbNuw116.png,vivo,2000人以上,2018-12-17 19:00:01,0,宝安区,本科,,未融资,产品|需求|项目类,2018-12-17,,,today,移动互联网,"移动互联网,通信/网络设备",0,全职,1545796434000,22.551716,1号线/罗宝线_新安;1号线/罗宝线_宝安中心;1号线/罗宝线_宝体;5号线/环中线_临海;5号线/环中线_宝华;5号线/环中线_宝安中心;5号线/环中线_翻身;11号线/机场线_宝安,113.88742,0,,丰厚年终奖，发展机会大，工作环境好,5431604,"移动互联网,通信/网络设备",数据分析师,,4036782,0,0,25k-40k,0,数据分析,,宝安中心,5号线/环中线,数据分析,3-5年
0,0,1,科技园,深圳,深圳市易乐云科技有限公司,313307,"绩效奖金,带薪年假,专项奖金,五险一金",i/image3/M00/41/E8/Cgq2xlq0uASAcGsVAABsai_U16Q231.png,易乐云,15-50人,2018-12-25 09:29:48,0,南山区,本科,,A轮,产品|需求|项目类,1天前发布,,,threeDays,移动互联网,"大数据,移动互联网,数据运营,数据库",0,全职,1545558096000,22.545553,1号线/罗宝线_高新园;1号线/罗宝线_深大,113.946882,0,,"发展空间大,技术氛围好,下午茶,季度奖",5364867,"大数据,移动互联网,数据运营,数据库",高级数据分析师,,9701088,1,79,8k-13k,0,数据分析,"数据运营,数据库",深大,1号线/罗宝线,业务运营,1-3年
0,0,1,"科技园,大冲,深圳湾",深圳,百融金融信息服务股份有限公司,73043,"技能培训,股票期权,带薪年假,定期体检",i/image2/M01/88/6A/CgotOVuQ4huASUDcAAATvonMxC0368.jpg,百融金服,500-2000人,2018-12-24 10:23:43,0,南山区,本科,,C轮,金融类,2天前发布,,,today,"金融,数据服务","大数据,银行,风控",0,全职,1545804765000,22.99368,,113.993578,0,,"五险一金,商业保险,弹性工作,福利补贴",3968052,"大数据,银行,风控",数据分析师,,2813400,1,100,10k-20k,0,风控,风控,,,风控,1-3年
0,0,1,"科技园,西丽,大冲",深圳,东莞团贷网互联网科技服务有限公司,25576,"节日礼物,带薪年假,年度旅游,定期体检",i/image/M00/18/6E/Cgp3O1bzun2ALs4CAAJHGWlcbcc449.png,团贷网,2000人以上,2018-12-03 10:06:50,0,南山区,本科,,D轮及以上,开发|测试|运维类,2018-12-03,,,overSevenDays,"移动互联网,金融","大数据,数据挖掘,算法",0,全职,1544576504000,22.554548,,113.950586,0,,"空间大,福利棒,班车",4929545,"大数据,数据挖掘,算法",高级数据分析师,,5598755,0,0,15k-25k,0,数据开发,"数据挖掘,算法",,,数据分析,3-5年
0,0,1,,深圳,北京字节跳动科技有限公司,62,"扁平管理,弹性工作,大厨定制三餐,就近租房补贴",i/image2/M01/79/0A/CgoB5ltr2A-AM5SFAADbT9jQCn841.jpeg,字节跳动,2000人以上,2018-12-25 23:01:50,0,南山区,本科,,C轮,产品|需求|项目类,1天前发布,,,today,"移动互联网,数据服务",数据分析,0,全职,1545793214000,22.511303,,22.511303,0,,六险一金，弹性工作，免费三餐，租房补贴,5269516,数据分析,高级数据分析师-faceu,,8755848,0,0,10k-20k,0,数据分析,,,,其他数据分析,3-5年
0,0,1,"科技园,白石洲,大冲",深圳,深圳碳原子科技有限公司,59074,"年度旅游,水果零食,弹性工作,交通补助",i/image3/M00/24/A1/Cgq2xlqWl7aAeXxOAAGU8FvevPQ120.png,SEE小电铺,150-500人,2018-12-26 10:13:07,0,南山区,本科,,C轮,开发|测试|运维类,10:13发布,,,today,移动互联网,,0,全职,1545794031000,22.542288,1号线/罗宝线_白石洲;1号线/罗宝线_高新园;1号线/罗宝线_深大,113.953738,0,,包午晚餐 交通便利 福利诱人 团队专业,5402343,Hive,数据分析师（偏商业分析方向）,,1492787,1,100,15k-30k,0,数据开发,Hive,深大,1号线/罗宝线,数据分析,3-5年
0,0,1,,深圳,深圳市万普拉斯科技有限公司,5794,"五险一金,通讯津贴,带薪年假,节日礼物",i/image/M00/01/29/Cgp3O1ZhbPSAWj17AAAIiWsL2h4220.png,一加手机,500-2000人,2018-12-25 14:10:20,0,福田区,本科,,未融资,市场|商务类,1天前发布,,,threeDays,电子商务,,0,全职,1545711340000,22.530893,1号线/罗宝线_车公庙;1号线/罗宝线_竹子林;11号线/机场线_车公庙;7号线_农林;7号线_车公庙;9号线_下沙;9号线_车公庙,114.02145,0,,"开放的环境,自由的氛围",5208365,"市场分析,市场竞争分析",资深电商数据分析师,,58614,3,24,10k-20k,0,市场|营销,"市场分析,市场竞争分析",农林,7号线,商业数据分析,3-5年
0,0,1,"后海,深圳湾,科技园,后海,后海,深圳湾,深圳湾,科技园,科技园",深圳,OPPO广东移动通信有限公司,6927,"丰厚年终,扁平管理,追求极致,本分",image1/M00/37/F3/Cgo8PFWkd7iAHDSXAAAKdotH5mM556.jpg,OPPO,2000人以上,2018-12-20 14:25:30,0,南山区,本科,,不需要融资,开发|测试|运维类,2018-12-20,,,today,移动互联网,"大数据,数据挖掘",0,全职,1545805821000,22.518792,2号线/蛇口线_登良;2号线/蛇口线_后海;2号线/蛇口线_科苑;11号线/机场线_后海,113.943044,0,,核心事业群 千万级日活 氛围好 组织扁平,3868326,"大数据,数据挖掘",数据分析师,,2259801,4,100,15k-30k,0,数据开发,数据挖掘,登良,2号线/蛇口线,数据分析,1-3年
0,0,1,岗厦,深圳,深圳市华志健电子有限公司,388787,"年底双薪,带薪年假,绩效奖金",i/image3/M00/51/ED/CgpOIFsClAiAVcDXAABio1AE9yM509.png,华志健电子,15-50人,2018-12-18 10:49:32,0,福田区,不限,,未融资,产品|需求|项目类,2018-12-18,,,threeDays,"电子商务,文化娱乐","移动互联网,数据库",0,全职,1545701358000,22.544042,2号线/蛇口线_莲花西;2号线/蛇口线_福田;2号线/蛇口线_市民中心;2号线/蛇口线_岗厦北;4号线/龙华线_会展中心;4号线/龙华线_市民中心;4号线/龙华线_少年宫;1号线/罗宝线_岗厦;1号线/罗宝线_会展中心;1号线/罗宝线_购物公园;3号线/龙岗线_购物公园;3号线/龙岗线_福田;3号线/龙岗线_少年宫;3号线/龙岗线_莲花村;11号线/机场线_福田,114.063658,0,,五险一金、平台稳定,5376643,"移动互联网,数据库",数据分析师,,9546925,0,0,18k-30k,0,数据分析,数据库,岗厦,2号线/蛇口线,数据分析,不限
0,0,1,"后海,南油,科技园",深圳,广发证券股份有限公司,25419,"绩效奖金,岗位晋升,领导好,扁平管理",image1/M00/2D/2A/Cgo8PFV3376AT6VGAAAgZejt_pE908.png,广发证券,2000人以上,2018-12-21 08:45:11,0,南山区,硕士,,上市公司,开发|测试|运维类,2018-12-21,,,today,金融,"大数据,金融,数据挖掘",0,全职,1545802652000,22.51828,2号线/蛇口线_登良;2号线/蛇口线_后海;2号线/蛇口线_科苑;11号线/机场线_南山;11号线/机场线_后海,113.93697,0,,"季度奖,年终奖,环境好,牛人多",4028309,"大数据,金融,数据挖掘",高级数据分析师,,6435818,1,9,25k-45k,0,数据开发,数据挖掘,登良,2号线/蛇口线,数据分析,3-5年
0,0,1,"西丽,大冲,科技园",深圳,深圳市中天安驰有限责任公司,3412,"节日礼物,股票期权,专项奖金,创业创新",i/image2/M01/7B/16/CgotOVtxV-WAMzkhAAA30TJBmqI842.png,中天安驰,50-150人,2018-12-13 11:21:35,0,南山区,硕士,,A轮,开发|测试|运维类,2018-12-13,,,overSevenDays,"移动互联网,硬件",,0,全职,1544672576000,22.549831,1号线/罗宝线_高新园;1号线/罗宝线_深大,113.943965,0,,"发展前景好,团队氛围好",4936723,,数据分析师,,2203740,0,0,15k-30k,0,数据开发,,深大,1号线/罗宝线,数据分析,不限
0,0,1,"后海,科技园",深圳,顺丰科技有限公司,35996,"技能培训,节日礼物,带薪年假,岗位晋升",image1/M00/0B/E5/CgYXBlT0JAmATdmDAAA6dg5X4_k508.jpg,顺丰科技有限公司,500-2000人,2018-12-18 15:39:19,0,南山区,本科,,不需要融资,开发|测试|运维类,2018-12-18,,"免费休闲游,免费健身房,一年调薪2次,交通补助,话费补助,免费体检,5险1金,创新经费支持,加班补贴",today,"移动互联网,电子商务",,0,全职,1545792256000,22.523392,2号线/蛇口线_后海;2号线/蛇口线_科苑;11号线/机场线_南山;11号线/机场线_后海,113.937987,0,,弹性工作时间 发展空间大 午餐补贴,5344745,,HAK高级数据分析师,,9646523,1,1,21k-26k,0,数据开发,,南山,2号线/蛇口线,数据分析,3-5年
0,0,1,,深圳,深圳艾姆诗数码科技有限公司,92951,"员工活动丰富,节日礼物,带薪年假,工龄奖",image2/M00/00/FA/CgpzWlXhDq-AZzyZAAA5GBqCbRs289.jpg?cc=0.8591307091992348,艾姆诗,500-2000人,2018-12-06 15:48:35,0,龙华新区,大专,,不需要融资,产品|需求|项目类,2018-12-06,,,disabled,"移动互联网,电子商务","电商,数据库,SPSS,SQL",0,全职,1545808746000,22.665738,4号线/龙华线_清湖,114.040781,0,,五险一金 带薪年假 年底双薪,5400854,"电商,数据库,SPSS,SQL",数据分析师/数据运营,,2409936,0,0,8k-16k,0,数据分析,"数据库,SPSS,SQL",清湖,4号线/龙华线,数据分析,1-3年
0,0,0,,深圳,深圳市初遇宝贝电子商务有限公司,296335,"年底双薪,股票期权,定期体检,带薪年假",images/logo_default.png,初遇宝贝电商,150-500人,2018-12-24 09:51:51,0,南山区,本科,,不需要融资,开发|测试|运维类,2天前发布,,,today,电子商务,,0,全职,1545786250000,22.556374,,113.94679,0,,"数据分析,数据挖掘,R,spss",4926827,,数据分析、数据挖掘工程师,,9470950,1,93,15k-30k,0,数据开发,,,,数据分析,3-5年
0,0,1,"民治,潜龙花园",深圳,深圳市创客家科技有限公司,111974,"弹性工作,扁平管理,挑战性强",i/image/M00/84/EC/CgqKkVhfhp2APcR8AAB6n_Ah3zc236.jpg,创客家科技,15-50人,2018-12-17 15:21:50,0,龙华新区,本科,,未融资,产品|需求|项目类,2018-12-17,,,overSevenDays,"数据服务,金融","金融,SPSS",0,兼职,1545117835000,22.621551,4号线/龙华线_深圳北站;4号线/龙华线_红山;5号线/环中线_深圳北站;5号线/环中线_民治,114.037375,0,,"工作时间自,回报高",3768718,"金融,SPSS",数据分析师,,2460041,0,0,5k-8k,0,数据分析,SPSS,深圳北站,5号线/环中线,数据分析,不限
0,0,1,"白石洲,大冲,科技园",深圳,深圳市随手科技有限公司,13809,"带薪年假,弹性工作时间,年度旅游,岗位晋升",i/image2/M01/8E/64/CgotOVufFriANmZGAACLh_igNgY834.jpg,随手科技,500-2000人,2018-12-24 14:34:03,0,南山区,本科,,C轮,开发|测试|运维类,2天前发布,,,today,"移动互联网,金融",,0,全职,1545808099000,22.534424,2号线/蛇口线_科苑;1号线/罗宝线_白石洲;1号线/罗宝线_高新园;1号线/罗宝线_深大,113.955143,0,,"节日福利多,平台大,涨薪快,晋升空间大",5445074,,数据分析部门经理,,4731523,0,0,20k-35k,0,数据开发,,深大,2号线/蛇口线,数据分析,3-5年
0,0,1,,深圳,北京通力互联技术服务有限公司,123777,"绩效奖金,交通补助,定期体检,通讯津贴",i/image/M00/2E/03/CgqKkVc9jmCAI8DpAAD09YLPnBk157.png,通力互联,2000人以上,2018-12-26 09:41:39,0,南山区,大专,,不需要融资,运营|编辑|客服类,09:41发布,,,disabled,"电子商务,企业服务",,0,全职,1545807350000,22.548737,1号线/罗宝线_宝安中心;1号线/罗宝线_宝体;5号线/环中线_临海;5号线/环中线_宝华;5号线/环中线_宝安中心;11号线/机场线_宝安,113.879037,0,,"薪资待遇佳,发展空间广",5432940,,数据分析产品助理,,5168924,0,0,8k-10k,0,运营,,宝安中心,5号线/环中线,数据运营,1-3年
0,0,1,科技园,深圳,深圳视界信息技术有限公司,64327,"股票期权,五险一金,周末双休,重职业规划",i/image/M00/6F/36/CgpEMlmyAgqAYDn_AABF62_jrJU714.png,八爪鱼,50-150人,2018-12-25 10:02:45,0,南山区,本科,,A轮,产品|需求|项目类,1天前发布,,,today,数据服务,"企业服务,产品设计,需求分析",0,全职,1545807717000,22.540521,1号线/罗宝线_高新园;1号线/罗宝线_深大,113.940008,0,,"周末双休,AI技术,大数据,NLP",2822959,"企业服务,产品设计,需求分析",产品经理（数据分析）,,1724197,2,100,15k-30k,0,产品经理,"产品设计,需求分析",深大,1号线/罗宝线,产品经理,3-5年
0,0,1,"深大北门,科技园",深圳,深圳乐信软件技术有限公司,15175,"年终分红,绩效奖金,专项奖金,年底双薪",i/image/M00/3B/D0/CgpFT1lRzq-AEd2vAAA8awVHq_M312.jpg,乐信,2000人以上,2018-12-17 17:08:29,0,南山区,本科,,上市公司,开发|测试|运维类,2018-12-17,,,today,移动互联网,互联网金融,0,全职,1545792989000,22.538345,2号线/蛇口线_科苑;1号线/罗宝线_高新园;1号线/罗宝线_深大,113.944704,0,,"上市公司,弹性工作,一对一导师,扁平管理",4917339,互联网金融,高级数据分析工程师 (MJ000051),,10982815,0,0,18k-35k,0,数据开发,,深大,2号线/蛇口线,数据分析,3-5年
0,0,1,,深圳,晨星资讯（深圳）有限公司,20857,"年底双薪,绩效奖金,五险一金,带薪年假",image2/M00/08/54/CgpzWlYCS8OATWBUAAAJ82qSls0439.png,晨星Morningstar,500-2000人,2018-12-26 10:45:17,0,福田区,本科,,上市公司,金融类,10:45发布,,,today,金融,金融,0,全职,1545744124000,22.536874,1号线/罗宝线_车公庙;1号线/罗宝线_竹子林;11号线/机场线_车公庙;7号线_农林;7号线_车公庙;9号线_下沙;9号线_车公庙,114.02128,0,,"全球化项目,多渠道发展,良好氛围,在职培训",3955420,金融,基金数据分析员,,6019981,2,56,5k-7k,0,证券|基金|信托|期货,,农林,7号线,其他证券|基金|信托|期货,不限
0,0,1,石厦,深圳,深圳市康恩诺科技有限公司,272572,,images/logo_default.png,康恩诺,2000人以上,2018-12-17 15:01:05,0,福田区,本科,,不需要融资,开发|测试|运维类,2018-12-17,,,threeDays,"移动互联网,电子商务","移动互联网,数据挖掘",0,全职,1545622602000,22.52153,4号线/龙华线_福民;1号线/罗宝线_购物公园;3号线/龙岗线_石厦;3号线/龙岗线_购物公园;7号线_沙尾;7号线_石厦;7号线_皇岗村;7号线_福民,114.055036,0,,管理岗,3706081,"移动互联网,数据挖掘",资深数据分析经理,,9089880,0,0,45k-90k,0,数据开发,数据挖掘,福民,7号线,数据分析,5-10年
0,0,1,,深圳,OPPO广东移动通信有限公司,6927,"丰厚年终,扁平管理,追求极致,本分",image1/M00/37/F3/Cgo8PFWkd7iAHDSXAAAKdotH5mM556.jpg,OPPO,2000人以上,2018-12-20 14:25:35,0,南山区,本科,,不需要融资,产品|需求|项目类,2018-12-20,,,today,移动互联网,"大数据,BI",0,全职,1545805821000,22.518785,2号线/蛇口线_登良;2号线/蛇口线_后海;2号线/蛇口线_科苑;11号线/机场线_后海,113.943044,0,,"优厚福利,海景办公",4499800,"大数据,BI",数据分析助理,,2259801,4,100,5k-10k,0,数据分析,BI,登良,2号线/蛇口线,数据分析,1-3年
0,0,1,石厦,深圳,深圳市康恩诺科技有限公司,272572,,images/logo_default.png,康恩诺,2000人以上,2018-12-17 15:01:05,0,福田区,本科,,不需要融资,开发|测试|运维类,2018-12-17,,,threeDays,"移动互联网,电子商务","大数据,数据挖掘",0,全职,1545622602000,22.52153,4号线/龙华线_福民;1号线/罗宝线_购物公园;3号线/龙岗线_石厦;3号线/龙岗线_购物公园;7号线_沙尾;7号线_石厦;7号线_皇岗村;7号线_福民,114.055036,0,,"薪资高,有晋升空间",4683233,"大数据,数据挖掘",资深大数据分析师,,9089880,0,0,50k-100k,0,数据开发,数据挖掘,福民,7号线,数据分析,5-10年
0,0,1,"香蜜湖,景田,车公庙",深圳,深圳旺金金融信息服务有限公司,22360,"绩效奖金,五险一金,弹性工作,节日礼物",image1/M00/00/2A/Cgo8PFTUXG2ASCBeAABWiaLg1T4635.png,投哪网,2000人以上,2018-12-17 16:10:09,0,福田区,本科,,C轮,产品|需求|项目类,2018-12-17,,,today,金融,,0,全职,1545808298000,22.544481,2号线/蛇口线_香梅北;2号线/蛇口线_景田;2号线/蛇口线_莲花西;1号线/罗宝线_香蜜湖;1号线/罗宝线_车公庙;11号线/机场线_车公庙;7号线_车公庙;9号线_车公庙;9号线_香梅;9号线_景田,114.039056,0,,"周末双休,地铁周边,健身房,互联网",5089622,SPSS,高级数据分析师,,6998713,1,23,15k-30k,0,数据分析,SPSS,景田,2号线/蛇口线,数据分析,1-3年
0,0,1,华侨城,深圳,深圳大数易智慧科技有限公司,431443,"年底双薪,股票期权,绩效奖金,专项奖金",i/image2/M01/77/C3/CgoB5ltpTZmAX3LuAAAHbN0XFII004.png,BDS大数易,少于15人,2018-12-17 08:40:44,0,南山区,本科,,天使轮,开发|测试|运维类,2018-12-17,,,overSevenDays,人工智能,大数据,1,实习,1545180018000,22.550908,2号线/蛇口线_侨城北;7号线_桃源村;7号线_深云,113.981429,0,,"转正机会,培训",5057884,大数据,数据分析师（实习生）,,11431596,0,0,3k-5k,0,数据开发,,桃源村,2号线/蛇口线,数据分析,应届毕业生
0,0,1,,深圳,深圳白骑士大数据有限公司,128065,"专项奖金,大数据,反欺诈,带薪年假",i/image/M00/3D/89/Cgp3O1dyQFiAS337AAAJ8SnzRcM883.png,深圳白骑士大数据有限公司,50-150人,2018-12-24 09:23:14,0,南山区,本科,,A轮,开发|测试|运维类,2天前发布,,,today,"企业服务,金融","大数据,数据挖掘",1,全职,1545786535000,22.545687,1号线/罗宝线_高新园;1号线/罗宝线_深大,113.945856,0,,"转正机会,发展空间大,领导好",3345922,"大数据,数据挖掘",数据分析实习生,,4845927,1,28,4k-6k,0,数据开发,数据挖掘,深大,1号线/罗宝线,数据分析,应届毕业生
0,0,0,"新洲,皇岗,购物公园",深圳,深圳乾晟信息科技有限公司,376017,,images/logo_default.png,乾晟科技,15-50人,2018-12-05 16:30:55,0,福田区,本科,,不需要融资,产品|需求|项目类,2018-12-05,,,overSevenDays,金融、数据服务,,0,全职,1544085537000,22.533214,2号线/蛇口线_福田;2号线/蛇口线_市民中心;2号线/蛇口线_岗厦北;4号线/龙华线_会展中心;4号线/龙华线_市民中心;1号线/罗宝线_岗厦;1号线/罗宝线_会展中心;1号线/罗宝线_购物公园;3号线/龙岗线_石厦;3号线/龙岗线_购物公园;3号线/龙岗线_福田;11号线/机场线_福田;7号线_石厦;7号线_皇岗村,114.057142,0,,五险一金，高新+期权,5396877,"SQL,数据库",数据分析师/金融工程,,10707756,0,0,10k-20k,0,数据分析,"SQL,数据库",岗厦,2号线/蛇口线,数据分析,1-3年
0,0,1,平湖,深圳,深圳市路行鸟科技有限公司,149226,,i/image/M00/5C/5B/CgqKkVfjkjiAXH2MAAAGoesIXKA911.jpg,路行鸟,150-500人,2018-12-24 08:56:41,0,龙岗区,大专,,未融资,产品|需求|项目类,2天前发布,,,today,"移动互联网,游戏","电商,游戏",0,全职,1545787629000,22.676705,,114.126221,0,,"房补,饭补,年假,海外工作机会",5348597,"电商,游戏",数据分析工程师-海外工作机会,,6163908,0,0,12k-20k,0,数据分析,,,,数据分析,3-5年
0,0,1,"科技园,深圳湾,南山医院",深圳,深圳市大疆创新科技有限公司,21775,"朝阳行业,丰厚薪资待遇,年终发车,扁平管理",i/image3/M00/15/FC/CgpOIFpyw7qASEOJAACCJ6iqYFc65.jpeg,DJI大疆创新,2000人以上,2018-12-24 14:06:27,0,南山区,本科,,未融资,产品|需求|项目类,2天前发布,,,today,"移动互联网,硬件",,0,全职,1545785857000,22.536797,2号线/蛇口线_科苑;1号线/罗宝线_高新园;1号线/罗宝线_深大,113.952222,0,,"无人机企业,福利待遇,发展平台",5434055,可视化,数据分析助理,,10794540,1,31,10k-15k,0,数据分析,可视化,深大,2号线/蛇口线,数据分析,不限
0,0,1,科技园,深圳,深圳市一面网络技术有限公司,35565,"技能培训,海归精英团队,Geek分享,绩效奖金",i/image/M00/8B/BA/CgqKkVh8ScGAXHRbAAFNeQBTYK0395.png,一面数据,50-150人,2018-12-24 14:39:21,0,南山区,本科,,A轮,产品|需求|项目类,2天前发布,,,disabled,"移动互联网,数据服务",汽车,0,全职,1545795519000,22.54064,1号线/罗宝线_高新园;1号线/罗宝线_深大,113.939945,0,,大数据人工智能；清华系大牛；技术氛围浓,5292721,汽车,数据分析师（汽车行业）,,617968,1,100,8k-15k,0,数据分析,,深大,1号线/罗宝线,数据分析,不限
0,0,1,"后海,深圳湾,南油",深圳,深圳市小赢科技有限责任公司,24587,"五险一金,两餐补助,超低息员工贷,年底奖金",i/image2/M01/B1/68/CgoB5lv-WkSAH5NIAAAHsuZjfIw784.png,小赢科技,500-2000人,2018-12-25 14:18:40,0,南山区,本科,,上市公司,金融类,1天前发布,,,today,金融,互联网金融,0,全职,1545723802000,113.941779,,22.519131,0,,"薪资优厚,优质福利,平台广阔",5206881,互联网金融,金融数据分析师,,2694874,1,37,15k-20k,0,互联网金融,,,,分析师,3-5年
0,0,1,,深圳,顺丰速运有限公司,210133,"年底双薪,绩效奖金,带薪年假,午餐补助",i/image/M00/38/83/CgpEMllDQSKAARc8AAHNwrMNgpQ604.png,顺丰速运,2000人以上,2018-12-17 10:22:16,0,南山区,本科,,上市公司,开发|测试|运维类,2018-12-17,,,today,生活服务,"物流,数据仓库,数据架构,数据挖掘",0,全职,1545788183000,22.524499,2号线/蛇口线_后海;2号线/蛇口线_科苑;11号线/机场线_后海,113.940213,0,,上市公司,5361753,"物流,数据仓库,数据架构,数据挖掘",资深高级数据分析师,,8093858,4,1,25k-50k,0,数据开发,"数据仓库,数据架构,数据挖掘",科苑,2号线/蛇口线,数据分析,5-10年
0,0,1,"大冲,科技园",深圳,深圳市九游网络科技有限公司,198141,,i/image/M00/56/EF/CgpEMll_ATOAcriaAAAzqf8vIZ0229.png,九游,15-50人,2018-12-26 11:02:15,0,南山区,本科,,不需要融资,产品|需求|项目类,11:02发布,,,today,游戏,"游戏,移动互联网,数据运营",0,全职,1545793326000,22.535885,2号线/蛇口线_科苑;1号线/罗宝线_高新园;1号线/罗宝线_深大,113.952514,0,,"弹性工作,周末双休,精英团队",5277652,"游戏,移动互联网,数据运营",游戏数据分析师,,8598534,1,73,12k-22k,0,数据分析,数据运营,深大,2号线/蛇口线,数据分析,1-3年
0,0,1,"前海,南头,科技园",深圳,深圳派鲜科技有限公司,22623,"技能培训,年底双薪,岗位晋升,O2O",i/image/M00/67/A7/Cgp3O1gOyWqAfL9WAAAkpjbPgqY468.png,派鲜,150-500人,2018-12-24 11:29:13,0,南山区,不限,,B轮,产品|需求|项目类,2天前发布,,,today,生活服务,,1,全职,1545786103000,22.542186,1号线/罗宝线_深大;1号线/罗宝线_桃园,113.932899,0,,"五险一金,周末双休,免费班车,优秀团队",5430367,SQL,数据分析产品助理,,3132685,1,8,8k-10k,0,数据分析,SQL,桃园,1号线/罗宝线,数据分析,应届毕业生
0,0,1,景田,深圳,马上消费金融股份有限公司,136443,"股票期权,年终分红,绩效奖金,带薪年假",i/image/M00/3D/D2/Cgp3O1dzLwmACOhFAAAst6OkilQ904.jpg,马上金融,2000人以上,2018-12-25 09:35:36,0,福田区,本科,,不需要融资,金融类,1天前发布,,,today,"金融,移动互联网",,0,全职,1545802821000,22.553401,2号线/蛇口线_景田;2号线/蛇口线_莲花西;4号线/龙华线_少年宫;4号线/龙华线_莲花北;3号线/龙岗线_少年宫;9号线_香梅;9号线_景田;9号线_梅景;9号线_下梅林,114.047958,0,,五险一金 带薪年假 定期培训 年终奖金,5450886,"风控,风险分析",反欺诈数据分析师,,8969208,0,0,13k-25k,0,风控,"风控,风险分析",景田,2号线/蛇口线,风控,3-5年
0,0,1,,深圳,中国平安财产保险股份有限公司,1868,"绩效奖金 ,五险一金 ,带薪年假 ,年度旅游 ",image1/M00/1D/E6/CgYXBlUspPGAMaaXAACAnoSM6vM658.jpg,平安产险,2000人以上,2018-12-24 00:00:00,0,福田区,本科,,上市公司,金融类,2天前发布,,,today,"移动互联网,金融","金融,保险",0,全职,1545724281000,22.533181,2号线/蛇口线_福田;2号线/蛇口线_市民中心;4号线/龙华线_会展中心;4号线/龙华线_市民中心;1号线/罗宝线_岗厦;1号线/罗宝线_会展中心;1号线/罗宝线_购物公园;3号线/龙岗线_石厦;3号线/龙岗线_购物公园;3号线/龙岗线_福田;11号线/机场线_福田;7号线_石厦;7号线_皇岗村,114.055639,0,,"五险一金,绩效奖金,带薪年假,定期体检",5432518,"金融,保险",03112H-小微客户数据分析岗,,359968,2,14,20k-25k,0,保险,保险,岗厦,2号线/蛇口线,其他保险职位,1-3年
0,0,1,,深圳,OPPO广东移动通信有限公司,6927,"丰厚年终,扁平管理,追求极致,本分",image1/M00/37/F3/Cgo8PFWkd7iAHDSXAAAKdotH5mM556.jpg,OPPO,2000人以上,2018-12-20 14:25:39,0,南山区,本科,,不需要融资,开发|测试|运维类,2018-12-20,,,today,移动互联网,,0,全职,1545805821000,22.518792,2号线/蛇口线_登良;2号线/蛇口线_后海;2号线/蛇口线_科苑;11号线/机场线_后海,113.943044,0,,核心事业群 千万级日活 氛围好 组织扁平,1670801,,高级数据分析工程师,,2259801,4,100,15k-30k,0,高端技术职位,,登良,2号线/蛇口线,其他高端技术职位,3-5年
0,0,1,"后海,深圳湾,科技园",深圳,深圳市小赢科技有限责任公司,24587,"五险一金,两餐补助,超低息员工贷,年底奖金",i/image2/M01/B1/68/CgoB5lv-WkSAH5NIAAAHsuZjfIw784.png,小赢科技,500-2000人,2018-12-21 14:18:10,0,南山区,本科,,上市公司,市场|商务类,2018-12-21,,,today,金融,金融,0,全职,1545803636000,22.519682,2号线/蛇口线_登良;2号线/蛇口线_后海;2号线/蛇口线_科苑;11号线/机场线_后海,113.94225,0,,五险一金、定期体检、绩效奖金、午餐补助,4151939,金融,数据分析专家,,292652,1,67,20k-25k,0,市场|营销,,登良,2号线/蛇口线,其他市场|营销,3-5年
0,0,1,"深圳湾,后海",深圳,深圳市铱硙医疗科技有限公司,211786,"专项奖金,带薪年假,领导好,五险一金",i/image/M00/34/E5/CgpEMlk8oD2AfeRlAACDDr04sSA282.jpg,脑医生,15-50人,2018-12-21 12:18:40,0,南山区,硕士,,A轮,产品|需求|项目类,2018-12-21,,,disabled,"医疗健康,数据服务","云计算,需求分析,医疗",0,全职,1545807804000,22.503279,2号线/蛇口线_湾厦;2号线/蛇口线_海月;2号线/蛇口线_登良,113.94868,0,,"人工智能,高端前沿,前景广阔",4680444,"云计算,需求分析,医疗",基因数据分析专家,,8148737,1,80,12k-18k,0,产品经理,"需求分析,医疗",海月,2号线/蛇口线,产品经理,1-3年
0,0,1,"前海,南头,科技园",深圳,亿达信息技术（深圳）有限公司,168557,,i/image/M00/91/41/Cgp3O1iX5ryAG-T-AAAOmZ4LcU4462.png,YIDATEC,2000人以上,2018-12-24 15:20:40,0,南山区,本科,,不需要融资,产品|需求|项目类,2天前发布,,"购买社保,免费休闲游,试用期上公积金,免费下午茶,免费体检,一年多次调薪,6险1金",today,"移动互联网,游戏",,0,全职,1545790114000,22.542186,1号线/罗宝线_深大;1号线/罗宝线_桃园,113.932899,0,,"免费班车,免费早餐,六险一金,绩效+津贴",4499760,"需求分析,用户研究",数据分析产品经理,,10626005,0,0,8k-10k,0,产品经理,"需求分析,用户研究",桃园,1号线/罗宝线,其他产品经理,1-3年
0,0,1,"购物公园,皇岗,新洲",深圳,平安科技（深圳）有限公司,24748,"节日礼物,年度旅游,岗位晋升,技能培训",i/image/M00/7D/7C/Cgp3O1hHwlSAXh_pAACcLWenfL8606.jpg,平安科技,2000人以上,2018-12-26 00:00:16,0,福田区,本科,,不需要融资,产品|需求|项目类,00:00发布,,,today,金融,"大数据,金融,SPSS",0,全职,1545804943000,22.533344,2号线/蛇口线_福田;2号线/蛇口线_市民中心;4号线/龙华线_会展中心;4号线/龙华线_市民中心;1号线/罗宝线_岗厦;1号线/罗宝线_会展中心;1号线/罗宝线_购物公园;3号线/龙岗线_石厦;3号线/龙岗线_购物公园;3号线/龙岗线_福田;11号线/机场线_福田;7号线_石厦;7号线_皇岗村,114.055755,0,,世界500强 带薪年假 节日福利 绩效丰厚,3776813,"大数据,金融,SPSS",数据分析专员（深圳）,,811225,4,35,10k-15k,0,数据分析,SPSS,岗厦,2号线/蛇口线,数据分析,不限
0,0,1,科技园,深圳,腾讯科技(深圳)有限公司,451,"免费班车,成长空间,年度旅游,岗位晋升",image1/M00/00/03/CgYXBlTUV_qALGv0AABEuOJDipU378.jpg,腾讯,2000人以上,2018-12-22 21:38:10,0,南山区,本科,,上市公司,开发|测试|运维类,2018-12-22,,"免费班车,年轻团队,学习机会,mac办公,定期团建,开工利是红包",disabled,"移动互联网 ,游戏",,0,全职,1545810166000,22.540822,1号线/罗宝线_深大;1号线/罗宝线_桃园,113.934457,0,,技术大咖,5243801,"SQLServer,Spark,Hadoop,算法",CSIG18-高级数据分析师（深圳）,,7399330,1,100,15k-30k,0,数据开发,"SQLServer,Spark,Hadoop,算法",桃园,1号线/罗宝线,数据分析,3-5年
0,0,0,"新洲,皇岗,购物公园",深圳,深圳乾晟信息科技有限公司,376017,,images/logo_default.png,乾晟科技,15-50人,2018-12-05 16:27:48,0,福田区,本科,,不需要融资,产品|需求|项目类,2018-12-05,,,overSevenDays,金融、数据服务,,1,实习,1544085537000,22.533214,2号线/蛇口线_福田;2号线/蛇口线_市民中心;2号线/蛇口线_岗厦北;4号线/龙华线_会展中心;4号线/龙华线_市民中心;1号线/罗宝线_岗厦;1号线/罗宝线_会展中心;1号线/罗宝线_购物公园;3号线/龙岗线_石厦;3号线/龙岗线_购物公园;3号线/龙岗线_福田;11号线/机场线_福田;7号线_石厦;7号线_皇岗村,114.057142,0,,五险一金，高新+期权,5396850,"SQL,数据库",数据分析实习生/金融工程,,10707756,0,0,4k-8k,0,数据分析,"SQL,数据库",岗厦,2号线/蛇口线,数据分析,应届毕业生
0,0,1,,深圳,深圳前海达飞金融服务有限公司,35539,"年底双薪,节日礼物,技能培训,年度旅游",i/image2/M01/56/67/CgoB5lseQsWAKufbAAEVwNGPM7c178.png,即有分期,2000人以上,2018-12-17 11:31:35,0,福田区,本科,,D轮及以上,产品|需求|项目类,2018-12-17,,,today,金融,,0,全职,1545794642000,22.54713,2号线/蛇口线_莲花西;2号线/蛇口线_福田;2号线/蛇口线_市民中心;2号线/蛇口线_岗厦北;4号线/龙华线_会展中心;4号线/龙华线_市民中心;4号线/龙华线_少年宫;1号线/罗宝线_岗厦;1号线/罗宝线_会展中心;3号线/龙岗线_福田;3号线/龙岗线_少年宫;3号线/龙岗线_莲花村;11号线/机场线_福田,114.06363,0,,领导nice 团队牛人多 美女多,5363967,"SPSS,SQL,数据库",初级风险量化数据分析师,,618122,1,29,10k-15k,0,数据分析,"SPSS,SQL,数据库",岗厦,2号线/蛇口线,数据分析,1-3年
0,0,1,"后海,科技园",深圳,顺丰科技有限公司,35996,"技能培训,节日礼物,带薪年假,岗位晋升",image1/M00/0B/E5/CgYXBlT0JAmATdmDAAA6dg5X4_k508.jpg,顺丰科技有限公司,500-2000人,2018-12-25 09:56:51,0,南山区,本科,,不需要融资,产品|需求|项目类,1天前发布,,"免费休闲游,免费健身房,一年调薪2次,交通补助,话费补助,免费体检,5险1金,创新经费支持,加班补贴",today,"移动互联网,电子商务","大数据,产品策划,产品设计",0,全职,1545792256000,22.523392,2号线/蛇口线_后海;2号线/蛇口线_科苑;11号线/机场线_南山;11号线/机场线_后海,113.937987,0,,重点项目 技术氛围,5360313,"大数据,产品策划,产品设计",DSQ-数据产品经理（数据分析方向）,,9646523,1,1,18k-36k,0,产品经理,"产品策划,产品设计",南山,2号线/蛇口线,数据产品经理,3-5年
0,0,1,南头,深圳,深圳市和讯华谷信息技术有限公司,917,"五险一金,文体活动,团建旅游,美味晚餐",i/image/M00/37/20/CgqKkVdfms6Ac6dNAABY3gBvuqI944.jpg,极光,500-2000人,2018-12-26 13:39:15,0,南山区,本科,,上市公司,开发|测试|运维类,13:39发布,,,today,"移动互联网,数据服务","金融,数据挖掘",0,全职,1545809506000,22.550007,1号线/罗宝线_新安,113.907458,0,,"D轮+,大数据平台,14薪+,弹性工作",4185104,"金融,数据挖掘",高级数据分析师（金融APP方向）,,2153176,1,89,15k-25k,0,数据开发,数据挖掘,新安,1号线/罗宝线,数据分析,3-5年
0,0,1,"科技园,深圳湾,南山医院",深圳,深圳市大疆创新科技有限公司,21775,"朝阳行业,丰厚薪资待遇,年终发车,扁平管理",i/image3/M00/15/FC/CgpOIFpyw7qASEOJAACCJ6iqYFc65.jpeg,DJI大疆创新,2000人以上,2018-12-24 14:06:26,0,南山区,本科,,未融资,产品|需求|项目类,2天前发布,,,today,"移动互联网,硬件",,0,全职,1545785857000,22.536797,2号线/蛇口线_科苑;1号线/罗宝线_高新园;1号线/罗宝线_深大,113.952222,0,,"无人机企业,福利待遇,发展平台",5434075,,数据分析师 （业务指标方向）,,10794540,1,31,12k-20k,0,数据分析,,深大,2号线/蛇口线,数据分析,1-3年
0,0,1,,深圳,厦门吉比特网络技术股份有限公司,25205,"上市游戏公司,六险一金,住房补贴,年终分红",image1/M00/00/34/Cgo8PFTUXJKAUGStAABQF8Ob-cc090.jpg,吉比特,150-500人,2018-12-26 09:50:43,0,南山区,本科,,上市公司,产品|需求|项目类,09:50发布,,,disabled,游戏,"广告营销,游戏",0,全职,1545808086000,22.542007,1号线/罗宝线_白石洲;1号线/罗宝线_高新园;1号线/罗宝线_深大,113.953849,0,,"上市公司,平台大,福利好,发展空间大",4143326,"广告营销,游戏",广告数据分析师,,7419430,3,100,15k-20k,0,数据分析,,深大,1号线/罗宝线,数据分析,1-3年
0,0,1,,深圳,麦芒（深圳）互联网信息服务有限公司,429956,"定期体检,年终分红,绩效奖金,专项奖金",i/image2/M01/75/B3/CgotOVtj08qABq9YAAAUAvc41IQ246.jpg,麦芒科技,50-150人,2018-12-26 09:41:48,0,南山区,本科,,不需要融资,金融类,09:41发布,,,today,"移动互联网,金融",,0,全职,1545790510000,22.54834,1号线/罗宝线_高新园;1号线/罗宝线_深大,113.9446,0,,"固定15薪,六险一金,各种团建,各种福利",5174066,"风控,策略设计",反欺诈数据分析师,,4877146,1,100,9k-16k,0,互联网金融,"风控,策略设计",深大,1号线/罗宝线,风控,1-3年
0,0,1,,深圳,深圳市客路网络科技有限公司,28121,"零食水果供应,带薪年假,绩效奖金,扁平管理",i/image/M00/00/AD/Cgp3O1ZSwWuATjtNAAAfDHrmDjo001.png,KLOOK 客路旅行,500-2000人,2018-12-26 10:38:23,0,福田区,本科,,D轮及以上,运营|编辑|客服类,10:38发布,,,today,"移动互联网,旅游",,0,全职,1545806777000,22.533263,1号线/罗宝线_香蜜湖;1号线/罗宝线_车公庙;11号线/机场线_车公庙;7号线_农林;7号线_车公庙;7号线_上沙;9号线_下沙;9号线_车公庙,114.030219,0,,"国际化平台,环境舒适,好玩有趣",5150274,,财务数据分析师,,366796,1,100,10k-20k,0,运营,,农林,7号线,数据运营,3-5年
0,0,1,"科技园,南山医院,大冲",深圳,深圳市创梦天地科技有限公司,401,"绩效奖金,五险一金,带薪年假,节日礼物",image1/M00/00/03/CgYXBlTUV_mAAUZkAABiNm6Emp4030.jpg,乐逗游戏,500-2000人,2018-12-21 10:35:44,0,南山区,本科,,上市公司,产品|需求|项目类,2018-12-21,,,today,移动互联网,"游戏,数据运营",0,全职,1545810141000,22.54834,1号线/罗宝线_高新园;1号线/罗宝线_深大,113.9446,0,,薪酬有吸引力；弹性上班；上市公司空间大,5435614,"游戏,数据运营",移动游戏数据分析,,11556964,0,0,20k-30k,0,数据分析,数据运营,深大,1号线/罗宝线,数据分析,5-10年
0,0,1,"八卦岭,笋岗,园岭,八卦岭,笋岗,园岭",深圳,平安科技（深圳）有限公司,24748,"节日礼物,年度旅游,岗位晋升,技能培训",i/image/M00/7D/7C/Cgp3O1hHwlSAXh_pAACcLWenfL8606.jpg,平安科技,2000人以上,2018-12-26 00:00:15,0,福田区,本科,,不需要融资,开发|测试|运维类,00:00发布,,,today,金融,大数据,0,全职,1545804943000,22.55951564,3号线/龙岗线_通新岭;3号线/龙岗线_红岭;7号线_黄木岗;7号线_八卦岭;7号线_红岭北;7号线_笋岗;9号线_银湖;9号线_泥岗;9号线_红岭北;9号线_园岭;9号线_红岭,114.09938142,0,,公司发展前景好，福利待遇好,3200572,大数据,数据分析师（数据仓库）（深圳）,,811225,4,35,15k-20k,0,数据开发,,八卦岭,7号线,数据分析,不限
0,0,1,"科技园,前海,南头",深圳,腾讯科技(深圳)有限公司,451,"免费班车,成长空间,年度旅游,岗位晋升",image1/M00/00/03/CgYXBlTUV_qALGv0AABEuOJDipU378.jpg,腾讯,2000人以上,2018-12-24 17:17:35,0,南山区,本科,,上市公司,开发|测试|运维类,2天前发布,,"免费班车,年轻团队,学习机会,mac办公,定期团建,开工利是红包",disabled,"移动互联网 ,游戏","大数据,数据挖掘",0,全职,1545808603000,22.540406,1号线/罗宝线_深大;1号线/罗宝线_桃园,113.935333,0,,"大空间,大平台",4116164,"大数据,数据挖掘",20718-数据分析工程师（深圳）,,7349721,1,10,18k-36k,0,数据开发,数据挖掘,桃园,1号线/罗宝线,数据分析,3-5年
0,0,1,,深圳,深圳优依购互娱科技有限公司,118347,"年底双薪,带薪年假,绩效奖金,岗位晋升",i/image/M00/0F/A5/CgqKkVbeYU-AYSO4AAAMQ9pzP7M354.jpg,辉耀互娱,50-150人,2018-12-21 17:40:18,0,南山区,本科,,A轮,运营|编辑|客服类,2018-12-21,,,today,"游戏,移动互联网",游戏,0,全职,1545808519000,22.556536,,113.935886,0,,"绩效奖金,全勤奖,年终奖",5158681,游戏,游戏数据分析师,,4331062,1,7,10k-20k,0,运营,,,,数据运营,3-5年
0,0,1,,深圳,厦门吉比特网络技术股份有限公司,25205,"上市游戏公司,六险一金,住房补贴,年终分红",image1/M00/00/34/Cgo8PFTUXJKAUGStAABQF8Ob-cc090.jpg,吉比特,150-500人,2018-12-26 09:50:41,0,南山区,本科,,上市公司,产品|需求|项目类,09:50发布,,,disabled,游戏,,0,全职,1545808086000,113.953849,,22.542007,0,,"上市公司,平台大,福利好,发展空间大",4958360,SPSS,数据分析师（挖掘方向）,,7419430,3,100,15k-20k,0,数据分析,SPSS,,,数据分析,3-5年
0,0,1,"深圳湾,大冲,科技园",深圳,万汇互联（深圳）科技有限公司,115637,"年终分红,绩效奖金,股票期权,带薪年假",i/image2/M01/5A/73/CgoB5lsozOqAZ2XmAAATE0isTPU169.jpg,万汇互联,150-500人,2018-12-26 14:46:35,0,南山区,本科,,天使轮,产品|需求|项目类,14:46发布,,,today,"社交网络,金融",,0,全职,1545805134000,113.953808,,22.533503,0,,绩效奖金；节日福利；弹性制工作,5272860,数据运营,运营数据分析师,,4043963,2,63,7k-13k,0,数据分析,数据运营,,,数据分析,1-3年
0,0,1,"南油,海王大厦,后海",深圳,平安城市建设科技（深圳）有限公司,30356,"节日礼物,技能培训,绩效奖金,岗位晋升",i/image2/M01/B1/70/CgoB5lv-ZeaAV8vBAACB3Ywnv-o854.png,平安城科,500-2000人,2018-12-17 13:39:28,0,南山区,本科,,上市公司,产品|需求|项目类,2018-12-17,,,threeDays,电子商务,"大数据,房产服务,可视化",0,全职,1545720174000,22.517623,2号线/蛇口线_登良;2号线/蛇口线_后海;11号线/机场线_南山;11号线/机场线_后海,113.933278,0,,500强，年奖多,5350822,"大数据,房产服务,可视化",数据分析建模专家,,5370135,0,0,20k-40k,0,数据分析,可视化,登良,2号线/蛇口线,可视化,5-10年
0,0,1,"新洲,石厦,皇岗",深圳,上海海万信息科技股份有限公司,128998,,i/image/M00/2A/A6/Cgp3O1cyziuAfM5AAAAe20ZOb-4754.png,海万科技,500-2000人,2018-12-24 18:21:55,0,福田区,本科,,不需要融资,开发|测试|运维类,2天前发布,,,today,"移动互联网,金融",,0,全职,1545806109000,22.52153,4号线/龙华线_福民;1号线/罗宝线_购物公园;3号线/龙岗线_石厦;3号线/龙岗线_购物公园;7号线_沙尾;7号线_石厦;7号线_皇岗村;7号线_福民,114.055036,0,,五险一金，周末双休，朝九晚六,5405110,ETL,bi数据分析师,,11741560,1,100,10k-20k,0,数据开发,ETL,福民,7号线,数据分析,3-5年
0,0,1,,深圳,滴滴优点科技（深圳）有限公司,160058,"定期体检,绩效奖金,领导好,五险一金",i/image/M00/BB/D7/CgqKkVjHj5yABuQ7AABk6-EQ144449.png,滴滴优点,50-150人,2018-12-26 14:20:35,0,福田区,本科,,A轮,产品|需求|项目类,14:20发布,,,disabled,移动互联网,"大数据,商业",0,全职,1545785887000,22.534054,1号线/罗宝线_香蜜湖;1号线/罗宝线_车公庙;11号线/机场线_车公庙;7号线_车公庙;7号线_上沙;9号线_下沙;9号线_车公庙,114.031537,0,,"五险一金,带薪年假,周末双休,员工福利",4082376,"大数据,商业",BI数据分析,,6564143,1,100,15k-25k,0,数据分析,商业,车公庙,7号线,数据分析,3-5年
0,0,1,"深圳湾,南油,后海",深圳,深圳市珍爱网信息技术有限公司,6718,"发展上升型,朝阳行业,创业氛围浓厚,年终分红",image1/M00/00/0E/CgYXBlTUWCaARrveAABvE1mqO8Q477.jpg,珍爱网,2000人以上,2018-12-24 15:14:50,0,南山区,本科,,不需要融资,开发|测试|运维类,2天前发布,,,today,"社交网络,生活服务","大数据,社交",0,全职,1545796229000,22.519366,2号线/蛇口线_登良;2号线/蛇口线_后海;2号线/蛇口线_科苑;11号线/机场线_后海,113.941993,0,,"项目前景好,团队氛围棒",5251454,"大数据,社交",高级数据分析师（平台技术部）,,193221,2,21,18k-25k,0,数据开发,,登良,2号线/蛇口线,数据分析,3-5年
0,0,1,,深圳,招商证券股份有限公司,67217,"全牌照券商,双A级,上市公司,优质培训体系",image1/M00/23/14/CgYXBlVHFbGAIjB7AABHqErvGLA347.jpg,招商证券信息技术中心,2000人以上,2018-12-05 07:55:46,0,南山区,本科,,上市公司,开发|测试|运维类,2018-12-05,,,disabled,"招聘,其他",,0,全职,1545808099000,22.530488,2号线/蛇口线_科苑;1号线/罗宝线_高新园;1号线/罗宝线_深大,113.948829,0,,"金融,科技",3434325,,数据分析中级经理,,2193534,1,82,20k-35k,0,数据开发,,深大,2号线/蛇口线,数据分析,1-3年
0,0,1,科技园,深圳,上海微创软件股份有限公司北京分公司,189022,"年底双薪,绩效奖金,免费班车,节日礼物",i/image2/M01/69/C4/CgoB5ltIYk-Aem2yAAA8xEL1jvM451.jpg,微创,2000人以上,2018-12-25 09:53:43,0,南山区,本科,,不需要融资,开发|测试|运维类,1天前发布,,,disabled,"移动互联网,电子商务",,0,全职,1545805373000,22.548179,1号线/罗宝线_高新园;1号线/罗宝线_深大,113.943551,0,,数据,4854431,"MySQL,数据仓库,数据挖掘",运营数据分析,,92776,2,57,8k-11k,0,数据开发,"MySQL,数据仓库,数据挖掘",深大,1号线/罗宝线,数据分析,1-3年
0,0,1,"上梅林,莲花北村,银湖",深圳,深圳市中手游网络科技有限公司,29911,"节日礼物,技能培训,绩效奖金,岗位晋升",image2/M00/06/EF/CgpzWlX7xIGAXF8RAAARZ0Wkzw8662.jpg,CMGE中手游,500-2000人,2018-12-24 09:39:34,0,福田区,本科,,上市公司,产品|需求|项目类,2天前发布,,,today,"移动互联网,游戏","游戏,数据运营",0,全职,1545796786000,22.99368,,113.993578,0,,"平台大,创新多,牛人多,福利多",5193710,"游戏,数据运营",sz1-数据分析（创新游戏）,,449855,2,74,8k-16k,0,数据分析,数据运营,,,数据分析,1-3年
0,0,1,,深圳,麦芒（深圳）互联网信息服务有限公司,429956,"定期体检,年终分红,绩效奖金,专项奖金",i/image2/M01/75/B3/CgotOVtj08qABq9YAAAUAvc41IQ246.jpg,麦芒科技,50-150人,2018-12-26 09:41:49,0,南山区,本科,,不需要融资,金融类,09:41发布,,,today,"移动互联网,金融","移动互联网,风险管理,风险分析,风险评估",0,全职,1545790510000,22.54834,1号线/罗宝线_高新园;1号线/罗宝线_深大,113.9446,0,,六险一金，年终15薪，节日福利超多的呢！,5274554,"移动互联网,风险管理,风险分析,风险评估",风控数据分析师,,4877146,1,100,9k-15k,0,风控,"风险管理,风险分析,风险评估",深大,1号线/罗宝线,风控,1-3年
0,0,1,"后海,科技园",深圳,顺丰科技有限公司,35996,"技能培训,节日礼物,带薪年假,岗位晋升",image1/M00/0B/E5/CgYXBlT0JAmATdmDAAA6dg5X4_k508.jpg,顺丰科技有限公司,500-2000人,2018-12-18 15:39:19,0,南山区,本科,,不需要融资,产品|需求|项目类,2018-12-18,,"免费休闲游,免费健身房,一年调薪2次,交通补助,话费补助,免费体检,5险1金,创新经费支持,加班补贴",today,"移动互联网,电子商务","企业服务,移动互联网",0,全职,1545792256000,22.523392,2号线/蛇口线_后海;2号线/蛇口线_科苑;11号线/机场线_南山;11号线/机场线_后海,113.937987,0,,福利待遇高，发展前景好,5335389,"企业服务,移动互联网",ZHB-中高级产品经理（数据分析方向）,,9646523,1,1,20k-30k,0,产品经理,,南山,2号线/蛇口线,产品经理,3-5年
0,0,1,,深圳,深圳市环球易购电子商务有限公司,83025,"节日礼物,股票期权,带薪年假,绩效奖金",image1/M00/38/9F/CgYXBlWmIt6Af8k5AABvK21LZWM490.jpg?cc=0.211507520172745,环球易购,2000人以上,2018-12-26 09:26:09,0,南山区,本科,,上市公司,开发|测试|运维类,09:26发布,,,today,电子商务,,0,全职,1545791367000,22.511241,11号线/机场线_南山,113.920558,0,,大平台,3565979,,运营数据分析专家,,2117758,4,100,30k-35k,0,数据开发,,南山,11号线/机场线,数据分析,5-10年
0,0,1,"八卦岭,笋岗,园岭",深圳,平安科技（深圳）有限公司,24748,"节日礼物,年度旅游,岗位晋升,技能培训",i/image/M00/7D/7C/Cgp3O1hHwlSAXh_pAACcLWenfL8606.jpg,平安科技,2000人以上,2018-12-26 00:00:10,0,福田区,本科,,不需要融资,综合职能|高级管理,00:00发布,,,today,金融,金融,0,全职,1545804943000,22.55951564,3号线/龙岗线_通新岭;3号线/龙岗线_红岭;7号线_黄木岗;7号线_八卦岭;7号线_红岭北;7号线_笋岗;9号线_银湖;9号线_泥岗;9号线_红岭北;9号线_园岭;9号线_红岭,114.09938142,0,,500强，福利待遇,3113005,金融,经营分析岗（经营数据分析方向）（深圳）,,811225,4,35,10k-15k,0,财务,,八卦岭,7号线,其他财务,不限
0,0,1,科技园,深圳,腾讯科技(深圳)有限公司,451,"免费班车,成长空间,年度旅游,岗位晋升",image1/M00/00/03/CgYXBlTUV_qALGv0AABEuOJDipU378.jpg,腾讯,2000人以上,2018-12-24 11:36:13,0,南山区,硕士,,上市公司,开发|测试|运维类,2天前发布,,"免费班车,年轻团队,学习机会,mac办公,定期团建,开工利是红包",disabled,"移动互联网 ,游戏","信息安全,支付,数据挖掘",0,全职,1545788522000,22.538841,1号线/罗宝线_白石洲;1号线/罗宝线_高新园;1号线/罗宝线_深大,113.953476,0,,"氛围和谐,福利齐全,长期激励,年度旅游",4608137,"信息安全,支付,数据挖掘",风控（海外）策略及数据分析工程师（深圳）,,7422710,1,10,25k-40k,0,数据开发,数据挖掘,深大,1号线/罗宝线,数据挖掘,3-5年
0,0,1,,深圳,上海海万信息科技股份有限公司,128998,,i/image/M00/2A/A6/Cgp3O1cyziuAfM5AAAAe20ZOb-4754.png,海万科技,500-2000人,2018-12-26 13:38:11,0,福田区,本科,,不需要融资,开发|测试|运维类,13:38发布,,,today,"移动互联网,金融",,0,全职,1545786684000,22.535702,2号线/蛇口线_莲花西;2号线/蛇口线_福田;2号线/蛇口线_市民中心;4号线/龙华线_会展中心;4号线/龙华线_市民中心;1号线/罗宝线_岗厦;1号线/罗宝线_会展中心;1号线/罗宝线_购物公园;3号线/龙岗线_石厦;3号线/龙岗线_购物公园;3号线/龙岗线_福田;11号线/机场线_福田;7号线_石厦,114.053855,0,,"五险一金,周末双休,朝九晚六,带薪年假",5359060,Hive,数据分析（BI）,,9362958,1,85,10k-14k,0,数据开发,Hive,岗厦,2号线/蛇口线,BI工程师,1-3年
0,0,1,"深圳湾,大冲,科技园",深圳,深圳云天励飞技术有限公司,95529,"节日礼物,带薪年假,年度旅游,开放务实",i/image/M00/45/77/CgqKkVeIdGiANSx7AAAVacVYVAo280.JPG,云天励飞,500-2000人,2018-12-24 11:56:02,0,南山区,本科,,A轮,开发|测试|运维类,2天前发布,,,today,移动互联网,"大数据,Java,数据挖掘",0,全职,1545808114000,22.529351,2号线/蛇口线_科苑;1号线/罗宝线_高新园;1号线/罗宝线_深大,113.952494,0,,"六险一金,技术大牛,优秀团队,节日福利",4246837,"大数据,Java,数据挖掘",数据分析挖掘服务架构师/开发总监,,2571879,0,0,25k-50k,0,数据开发,"Java,数据挖掘",深大,2号线/蛇口线,数据分析,5-10年
0,0,1,,深圳,深圳虾皮信息科技有限公司,131846,"定期体检,通讯津贴,带薪年假,绩效奖金",i/image/M00/32/F8/Cgp3O1dQBGWARgs_AAAPb7eQrCA058.png,Shopee,2000人以上,2018-12-24 09:57:56,0,南山区,本科,,上市公司,开发|测试|运维类,2天前发布,,,overSevenDays,电子商务,"电商,大数据,Hadoop,Hive,数据挖掘",0,全职,1544433445000,22.538345,2号线/蛇口线_科苑;1号线/罗宝线_高新园;1号线/罗宝线_深大,113.944704,0,,"外企氛围,蓝海市场,大牛多多,15天年假",5112044,"电商,大数据,Hadoop,Hive,数据挖掘",数据产品经理（电商数据分析方向）,,8627174,0,0,25k-50k,0,数据开发,"Hadoop,Hive,数据挖掘",深大,2号线/蛇口线,建模,5-10年
0,0,1,"新安,翻身路",深圳,维沃移动通信有限公司,19875,"年终分红,带薪年假,年度旅游,岗位晋升",image1/M00/00/25/Cgo8PFTUWH-Ab57wAABKOdLbNuw116.png,vivo,2000人以上,2018-11-27 09:52:20,0,宝安区,本科,,未融资,开发|测试|运维类,2018-11-27,,,threeDays,移动互联网,,0,全职,1545705941000,22.551716,1号线/罗宝线_新安;1号线/罗宝线_宝安中心;1号线/罗宝线_宝体;5号线/环中线_临海;5号线/环中线_宝华;5号线/环中线_宝安中心;5号线/环中线_翻身;11号线/机场线_宝安,113.88742,0,,"发展空间大,定期体检,公司氛围好,平台大",5134482,,广告数据分析工程师,,4449488,2,33,20k-40k,0,数据开发,,宝安中心,5号线/环中线,数据分析,1-3年
0,0,1,,深圳,深圳刷宝科技有限公司,16777,"金融互联网,五险一金,弹性工作,股票期权",image1/M00/29/23/Cgo8PFVkLIGAEhcUAACLU0tUK0E230.png,深圳刷宝科技有限公司,150-500人,2018-12-24 10:32:54,0,南山区,本科,,B轮,产品|需求|项目类,2天前发布,,,disabled,移动互联网,,0,全职,1545786756000,22.572267,5号线/环中线_兴东,113.926004,0,,五险一金 年度体检 晋升机会 股票期权,5275583,"SPSS,SQL",风控数据分析师,,7265891,1,13,15k-25k,0,数据分析,"SPSS,SQL",兴东,5号线/环中线,数据分析,3-5年
0,0,1,,深圳,深圳市创客家科技有限公司,111974,"弹性工作,扁平管理,挑战性强",i/image/M00/84/EC/CgqKkVhfhp2APcR8AAB6n_Ah3zc236.jpg,创客家科技,15-50人,2018-12-17 15:21:50,0,,硕士,,未融资,开发|测试|运维类,2018-12-17,,,overSevenDays,"数据服务,金融",,0,兼职,1545117835000,22.62155116,4号线/龙华线_深圳北站;4号线/龙华线_红山;5号线/环中线_深圳北站;5号线/环中线_民治,114.03737504,0,,待遇优厚，工作时间自由,2538458,,数据分析师Matlab/SAS/R/Stata,,2460041,0,0,6k-8k,0,高端技术职位,,深圳北站,5号线/环中线,其他高端技术职位,不限
0,0,1,,深圳,深圳市腾讯计算机系统有限公司,170275,,i/image/M00/97/71/CgqKkVidbx2ABhBQAABZXbgOYuc384.png,腾讯,2000人以上,2018-12-25 11:49:19,0,南山区,本科,,上市公司,开发|测试|运维类,1天前发布,,,today,不限,"社交,广告营销,数据挖掘,数据处理",0,全职,1545806323000,22.540822,1号线/罗宝线_深大;1号线/罗宝线_桃园,113.934457,0,,"核心业务,顶尖团队,发展迅速,学习晋升快",5443637,"社交,广告营销,数据挖掘,数据处理",SA-腾讯社交广告数据分析工程师（微信广告 深圳）,,6972423,0,0,25k-50k,0,数据开发,"数据挖掘,数据处理",桃园,1号线/罗宝线,数据分析,3-5年
0,0,1,,深圳,中腾信金融信息服务（上海）有限公司,35112,"节日礼物,年底多薪,绩效奖金,岗位晋升",image1/M00/00/53/Cgo8PFTUXRaAJMASAAA4tgqd6o4861.png,中腾信,2000人以上,2018-12-24 08:39:44,0,南山区,本科,,不需要融资,金融类,2天前发布,,"免费休闲游,免费体检,地铁周边,6险1金,前景无限好",today,金融,移动互联网,0,全职,1545809904000,22.540772,1号线/罗宝线_白石洲;1号线/罗宝线_高新园;1号线/罗宝线_深大,113.953243,0,,金融,4918961,移动互联网,反欺诈数据分析师(风控方向),,10927885,0,5,8k-15k,0,其他金融职位,,深大,1号线/罗宝线,其他金融职位,不限
0,0,1,车公庙,深圳,深圳市斯坦德资本管理集团有限公司,398362,"带薪年假,定期体检,年度旅游,节日礼物",i/image2/M00/54/DC/CgoB5lsaGBWAZzviAAAL9BPI1qk570.jpg,斯坦德集团,50-150人,2018-12-24 16:59:56,0,福田区,本科,,不需要融资,金融类,2天前发布,,,today,"移动互联网,金融","互联网金融,借贷,信用产品,策略设计,资信评估",0,全职,1545788964000,22.530081,1号线/罗宝线_车公庙;1号线/罗宝线_竹子林;11号线/机场线_车公庙;7号线_农林;7号线_车公庙;7号线_上沙;9号线_下沙;9号线_车公庙,114.024388,0,,五险一金 弹性工作时间轻松愉悦的工作氛围,5210781,"互联网金融,借贷,信用产品,策略设计,资信评估",高级风控数据分析建模师,,11651655,0,0,15k-30k,0,互联网金融,"信用产品,策略设计,资信评估",农林,7号线,分析师,3-5年
0,0,1,"华强北,振华路,上步",深圳,北京艾科创意信息技术有限公司,254,"年底双薪,技能培训,绩效奖金,岗位晋升",image1/M00/1F/4C/CgYXBlUybPGAPer5AAB3w_8PBDE432.png,活动行,50-150人,2018-12-25 10:31:48,0,福田区,本科,,A轮,开发|测试|运维类,1天前发布,,,today,移动互联网,"大数据,数据挖掘,算法,机器学习",0,全职,1545796983000,22.545642,2号线/蛇口线_华强北;2号线/蛇口线_燕南;1号线/罗宝线_科学馆;1号线/罗宝线_华强路;3号线/龙岗线_华新;3号线/龙岗线_通新岭;7号线_华强南;7号线_华强北;7号线_华新;7号线_黄木岗,114.089596,0,,"五险一金,年终奖,全勤奖,环境好",4104957,"大数据,数据挖掘,算法,机器学习",Java高级数据分析工程师,,410469,2,41,15k-30k,0,后端开发,"数据挖掘,算法,机器学习",华强北,2号线/蛇口线,Java,3-5年
0,0,1,"前海,蛇口,南油",深圳,深圳市迷你玩科技有限公司,136094,,i/image/M00/3C/4A/Cgp3O1dvTy6AHEsbAAAhssc2FXc796.jpg,迷你玩,50-150人,2018-12-24 17:15:10,0,南山区,本科,,B轮,运营|编辑|客服类,2天前发布,,,threeDays,游戏,游戏,1,全职,1545810924000,22.511543,,113.912931,0,,领导好。下午茶，扁平化管理,5341476,游戏,游戏运营（数据分析）,,10106801,0,0,6k-9k,0,运营,,,,数据运营,应届毕业生
0,0,1,"深圳湾,后海,科技园",深圳,万翼科技有限公司,62363,"绩效奖金,岗位晋升,管理规范,通讯津贴",i/image/M00/7A/FE/Cgp3O1hBD3iAdVqvAABYdCXFoxQ624.jpg,万科,2000人以上,2018-12-26 09:28:32,0,南山区,本科,,上市公司,开发|测试|运维类,09:28发布,,,today,"生活服务,硬件","大数据,移动互联网,数据挖掘",0,全职,1545806194000,22.526905,2号线/蛇口线_后海;2号线/蛇口线_科苑;1号线/罗宝线_深大;11号线/机场线_后海,113.941629,0,,"世界五百强,地产龙头企,薪资福利佳,挑战大",4674998,"大数据,移动互联网,数据挖掘",大数据分析工程师,,9525721,0,0,25k-50k,0,数据开发,数据挖掘,深大,2号线/蛇口线,数据分析,5-10年
0,0,1,"科技园,科技园,南头",深圳,招银网络科技（深圳）有限公司,32720,"技能培训,带薪年假,岗位晋升,五险一金",i/image/M00/A5/6B/Cgp3O1ir8wOAJzPbAAIHeppEuoE288.png,招银网络科技,2000人以上,2018-12-26 15:39:21,0,南山区,本科,,不需要融资,开发|测试|运维类,15:39发布,,,threeDays,金融,,0,全职,1545809769000,22.54110305,1号线/罗宝线_深大;1号线/罗宝线_桃园,113.93451454,0,,大数据分析工程师,881452,,大数据分析工程师,,1594940,1,18,15k-25k,0,后端开发,,桃园,1号线/罗宝线,其他后端开发,3-5年
0,0,1,"科技园,前海,南头",深圳,腾讯科技(深圳)有限公司,451,"免费班车,成长空间,年度旅游,岗位晋升",image1/M00/00/03/CgYXBlTUV_qALGv0AABEuOJDipU378.jpg,腾讯,2000人以上,2018-12-24 17:17:35,0,南山区,硕士,,上市公司,开发|测试|运维类,2天前发布,,"免费班车,年轻团队,学习机会,mac办公,定期团建,开工利是红包",disabled,"移动互联网 ,游戏",,0,全职,1545808603000,22.540406,1号线/罗宝线_深大;1号线/罗宝线_桃园,113.935333,0,,平台大,5238446,Hadoop,pcg01-qq后台高级数据分析工程师,,7349721,1,10,30k-60k,0,数据开发,Hadoop,桃园,1号线/罗宝线,数据分析,3-5年
0,0,1,"科技园,大冲",深圳,深圳虾皮信息科技有限公司,131846,"定期体检,通讯津贴,带薪年假,绩效奖金",i/image/M00/32/F8/Cgp3O1dQBGWARgs_AAAPb7eQrCA058.png,Shopee,2000人以上,2018-12-24 09:57:55,0,南山区,本科,,上市公司,产品|需求|项目类,2天前发布,,,today,电子商务,电商,0,全职,1545783544000,22.538345,2号线/蛇口线_科苑;1号线/罗宝线_高新园;1号线/罗宝线_深大,113.944704,0,,"新加坡公司,东南亚电商,牛人多,15天年假",5112771,电商,BI 数据分析师 - Data Analyst,,5626929,1,57,8k-12k,0,数据分析,,深大,2号线/蛇口线,BI,不限
0,0,1,,深圳,上海海万信息科技股份有限公司,128998,,i/image/M00/2A/A6/Cgp3O1cyziuAfM5AAAAe20ZOb-4754.png,海万科技,500-2000人,2018-12-26 11:47:52,0,福田区,本科,,不需要融资,运营|编辑|客服类,11:47发布,,,disabled,"移动互联网,金融",,0,全职,1545790218000,22.52153,4号线/龙华线_福民;1号线/罗宝线_购物公园;3号线/龙岗线_石厦;3号线/龙岗线_购物公园;7号线_沙尾;7号线_石厦;7号线_皇岗村;7号线_福民,114.055036,0,,"双休,过节费,年假,旅游",5411082,,运营助理（数据分析）,,4383654,1,100,5k-8k,0,运营,,福民,7号线,运营助理|专员,1-3年
0,0,1,"白石洲,大冲,科技园",深圳,中腾信金融信息服务（上海）有限公司,35112,"节日礼物,年底多薪,绩效奖金,岗位晋升",image1/M00/00/53/Cgo8PFTUXRaAJMASAAA4tgqd6o4861.png,中腾信,2000人以上,2018-12-24 08:39:44,0,南山区,本科,,不需要融资,开发|测试|运维类,2天前发布,,"免费休闲游,免费体检,地铁周边,6险1金,前景无限好",today,金融,互联网金融,0,全职,1545809904000,22.540772,1号线/罗宝线_白石洲;1号线/罗宝线_高新园;1号线/罗宝线_深大,113.953243,0,,金融,4891503,互联网金融,反欺诈数据分析师（征信业务方向）,,10927885,0,5,8k-15k,0,数据开发,,深大,1号线/罗宝线,数据分析,不限
0,0,1,"科技园,深圳湾,南山医院",深圳,深圳市网心科技有限公司,79086,"股票期权,带薪年假,绩效奖金,定期体检",i/image/M00/13/A3/CgqKkVbnwb-ASn48AAANg3BaeEc169.jpg,网心科技,150-500人,2018-12-24 19:38:19,0,南山区,本科,,未融资,开发|测试|运维类,2天前发布,,,today,"移动互联网,企业服务","大数据,数据挖掘",0,全职,1545807125000,22.53083,2号线/蛇口线_科苑;1号线/罗宝线_高新园;1号线/罗宝线_深大,113.94972,0,,"大牛团队,扁平化,成长空间大",4602747,"大数据,数据挖掘",数据分析工程师（Hadoop ）,,5467560,0,0,16k-32k,0,数据开发,数据挖掘,深大,2号线/蛇口线,数据分析,3-5年
0,0,1,"前海,南头,南油,南头,前海,前海,南头,南油,南油",深圳,深圳市金证科技股份有限公司,25317,"激情的团队,股票期权,努力变大牛,有舞台给您跳",image1/M00/00/34/Cgo8PFTUXJOAMEEpAAAroeFn454603.jpg,金证股份,2000人以上,2018-12-20 09:53:16,0,南山区,本科,,上市公司,产品|需求|项目类,2018-12-20,,,today,金融,"大数据,金融,SQL",0,全职,1545787661000,22.523675,1号线/罗宝线_桃园;1号线/罗宝线_大新;11号线/机场线_南山,113.915214,0,,"五险一金,带薪年假",3969637,"大数据,金融,SQL",ETL BI Developer 数据分析师,,5715150,1,100,12k-20k,0,数据分析,SQL,大新,1号线/罗宝线,大数据,3-5年
0,0,1,"科技园,南山医院,大冲",深圳,深圳中兴飞贷金融科技有限公司,111065,"领导高富帅,女同事白富美,公司环境好,健身房少不了",i/image/M00/01/EC/CgqKkVZ7ZlqAb5k1AAAhru6DBLQ533.jpg,飞贷金融科技,500-2000人,2018-12-26 09:01:49,0,南山区,本科,,B轮,开发|测试|运维类,09:01发布,,,today,"移动互联网,金融",,0,全职,1545786089000,22.546552,1号线/罗宝线_高新园;1号线/罗宝线_深大,113.944417,0,,领导好,5005648,"算法,数据挖掘",大数据分析leader,,4561904,1,75,25k-50k,0,数据开发,"算法,数据挖掘",深大,1号线/罗宝线,数据挖掘,3-5年
0,0,1,,深圳,深圳云天励飞技术有限公司,95529,"节日礼物,带薪年假,年度旅游,开放务实",i/image/M00/45/77/CgqKkVeIdGiANSx7AAAVacVYVAo280.JPG,云天励飞,500-2000人,2018-12-26 13:44:40,0,福田区,本科,,A轮,开发|测试|运维类,13:44发布,,,today,移动互联网,"新零售,大数据",0,全职,1545803044000,22.544595,2号线/蛇口线_深康;2号线/蛇口线_安托山;2号线/蛇口线_侨香;1号线/罗宝线_竹子林;7号线_安托山;7号线_农林,114.010855,0,,"待遇好,发展好,核心部门",4939942,"新零售,大数据",大数据分析工程师/YX,,10874673,0,0,20k-40k,0,数据开发,,农林,2号线/蛇口线,数据分析,1-3年
0,0,1,"前海,南头,科技园",深圳,深圳派鲜科技有限公司,22623,"技能培训,年底双薪,岗位晋升,O2O",i/image/M00/67/A7/Cgp3O1gOyWqAfL9WAAAkpjbPgqY468.png,派鲜,150-500人,2018-12-19 09:06:14,0,南山区,本科,,B轮,开发|测试|运维类,2018-12-19,,,today,生活服务,,1,全职,1545786103000,22.540853,1号线/罗宝线_深大;1号线/罗宝线_桃园,113.935533,0,,"五险一金,周末双休,免费班车,免费早餐",5100744,,数据分析（python开发）,,3132685,1,8,10k-15k,0,后端开发,,桃园,1号线/罗宝线,Python,应届毕业生
0,0,1,"莲花二村,皇岗,岗厦",深圳,中电科新型智慧城市研究院有限公司,151162,"带薪年假,交通补助,绩效奖金,定期体检",i/image/M00/61/3C/Cgp3O1f7UhmAf7bqAAARRdJ2Szw958.jpg,中电科智慧院,150-500人,2018-12-24 09:11:02,0,福田区,本科,,不需要融资,开发|测试|运维类,2天前发布,,,overSevenDays,"数据服务,生活服务",,0,全职,1536218922000,22.541106,2号线/蛇口线_福田;2号线/蛇口线_市民中心;2号线/蛇口线_岗厦北;4号线/龙华线_会展中心;4号线/龙华线_市民中心;4号线/龙华线_少年宫;1号线/罗宝线_岗厦;1号线/罗宝线_会展中心;3号线/龙岗线_福田;3号线/龙岗线_少年宫;3号线/龙岗线_莲花村;11号线/机场线_福田,114.070406,0,,"数据分析,优质平台",4931028,"数据挖掘,数据架构",大数据分析工程师,,10427792,1,14,15k-30k,0,数据开发,"数据挖掘,数据架构",岗厦,2号线/蛇口线,数据挖掘,3-5年
0,0,1,"大冲,科技园",深圳,北京三言高科技术有限公司,111858,,i/image/M00/02/4D/Cgp3O1aLZdqAPgDYAAAMNcvpW5c170.png,三言高科,150-500人,2018-12-20 16:15:54,0,南山区,本科,,未融资,产品|需求|项目类,2018-12-20,,,today,"企业服务,移动互联网","大数据,数据运营,数据库",0,全职,1545787409000,22.541441,1号线/罗宝线_高新园;1号线/罗宝线_深大,113.945,0,,五险一金、节假日福利、定期团建、话补餐补,5442586,"大数据,数据运营,数据库",大数据分析工程师,,10324172,0,0,30k-40k,0,数据分析,"数据运营,数据库",深大,1号线/罗宝线,数据分析,3-5年
0,0,1,,深圳,深圳市安络科技有限公司,86962,"节日礼物,年底双薪,专项奖金,带薪年假",image1/M00/3F/05/CgYXBlW_NCKAEwPnAAOWhiIlFSg880.png?cc=0.23067198507487774,深圳市安络科技有限公司,150-500人,2018-12-24 10:03:18,0,南山区,大专,,未融资,开发|测试|运维类,2天前发布,,,today,信息安全,大数据,0,全职,1545807956000,22.499038,2号线/蛇口线_水湾,113.9208,0,,五险一金，周末双休，年终奖金，定期体检,5417490,大数据,大数据分析工程师,,2225666,0,0,10k-20k,0,数据开发,,水湾,2号线/蛇口线,数据分析,1-3年
0,0,1,"西乡,桃源居",深圳,深圳市爱宝惟生物科技有限公司,49534,"技能培训,绩效奖金,年度旅游,管理规范",image1/M00/00/81/CgYXBlTUXdeAaBWVAABBQtSf5WA612.jpg,爱宝惟生物科技,15-50人,2018-12-17 15:11:00,0,宝安区,本科,,A轮,开发|测试|运维类,2018-12-17,,,overSevenDays,"移动互联网,医疗健康","大数据,数据挖掘",0,全职,1545041042000,22.59503,,113.87394,0,,双休、朝九晚六、待遇好、氛围好,5310782,"大数据,数据挖掘",大数据分析工程师,,2111420,0,0,15k-25k,0,数据开发,数据挖掘,,,数据分析,1-3年
0,0,1,,深圳,招商证券股份有限公司,67217,"全牌照券商,双A级,上市公司,优质培训体系",image1/M00/23/14/CgYXBlVHFbGAIjB7AABHqErvGLA347.jpg,招商证券信息技术中心,2000人以上,2018-12-05 07:55:45,0,南山区,本科,,上市公司,开发|测试|运维类,2018-12-05,,,disabled,"招聘,其他","大数据,数据挖掘",0,全职,1545808099000,22.530488,2号线/蛇口线_科苑;1号线/罗宝线_高新园;1号线/罗宝线_深大,113.948829,0,,"数据分析,产品运营",3799232,"大数据,数据挖掘",数据分析中级经理（产品运营方向）,,2193534,1,82,20k-35k,0,数据开发,数据挖掘,深大,2号线/蛇口线,数据分析,3-5年
0,0,1,"上梅林,莲花北村,笔架山",深圳,维沃移动通信有限公司,19875,"年终分红,带薪年假,年度旅游,岗位晋升",image1/M00/00/25/Cgo8PFTUWH-Ab57wAABKOdLbNuw116.png,vivo,2000人以上,2018-12-24 16:01:56,0,福田区,本科,,未融资,开发|测试|运维类,2天前发布,,,threeDays,移动互联网,"大数据,Java",0,全职,1545623026000,22.99368,,113.993578,0,,"福利好,平台大,工作氛围赞,同事颜值高",2729009,"大数据,Java",软件大数据分析工程师,,302876,2,100,20k-40k,0,数据开发,Java,,,数据分析,1-3年
0,0,1,"前海,南头,科技园",深圳,腾讯科技(深圳)有限公司,451,"免费班车,成长空间,年度旅游,岗位晋升",image1/M00/00/03/CgYXBlTUV_qALGv0AABEuOJDipU378.jpg,腾讯,2000人以上,2018-12-24 17:17:34,0,南山区,本科,,上市公司,产品|需求|项目类,2天前发布,,"免费班车,年轻团队,学习机会,mac办公,定期团建,开工利是红包",disabled,"移动互联网 ,游戏",,0,全职,1545808603000,22.540941,1号线/罗宝线_深大;1号线/罗宝线_桃园,113.933786,0,,大平台,5250466,,PCG01-QQ后台高级数据分析工程师,,7349721,1,10,20k-40k,0,数据分析,,桃园,1号线/罗宝线,数据分析,3-5年
0,0,1,"新洲,石厦,皇岗",深圳,上海海万信息科技股份有限公司,128998,,i/image/M00/2A/A6/Cgp3O1cyziuAfM5AAAAe20ZOb-4754.png,海万科技,500-2000人,2018-12-24 18:21:54,0,福田区,本科,,不需要融资,产品|需求|项目类,2天前发布,,,today,"移动互联网,金融",,0,全职,1545806109000,22.52153,4号线/龙华线_福民;1号线/罗宝线_购物公园;3号线/龙岗线_石厦;3号线/龙岗线_购物公园;7号线_沙尾;7号线_石厦;7号线_皇岗村;7号线_福民,114.055036,0,,五险一金，周末双休，朝九晚六,5380722,,python数据分析,,11741560,1,100,10k-15k,0,数据分析,,福民,7号线,数据分析,1-3年
0,0,1,"科技园,大冲",深圳,深圳虾皮信息科技有限公司,131846,"定期体检,通讯津贴,带薪年假,绩效奖金",i/image/M00/32/F8/Cgp3O1dQBGWARgs_AAAPb7eQrCA058.png,Shopee,2000人以上,2018-12-24 09:57:55,0,南山区,本科,,上市公司,产品|需求|项目类,2天前发布,,,today,电子商务,,0,全职,1545783544000,22.538345,2号线/蛇口线_科苑;1号线/罗宝线_高新园;1号线/罗宝线_深大,113.944704,0,,"新加坡公司,东南亚电商,牛人多",5112876,"SPSS,SQL,数据库",BI 资深数据分析师,,5626929,1,57,15k-25k,0,数据分析,"SPSS,SQL,数据库",深大,2号线/蛇口线,BI,3-5年
0,0,1,,深圳,晨星资讯（深圳）有限公司,20857,"年底双薪,绩效奖金,五险一金,带薪年假",image2/M00/08/54/CgpzWlYCS8OATWBUAAAJ82qSls0439.png,晨星Morningstar,500-2000人,2018-12-26 10:45:19,0,福田区,本科,,上市公司,金融类,10:45发布,,,today,金融,金融,0,全职,1545744124000,22.536874,1号线/罗宝线_车公庙;1号线/罗宝线_竹子林;11号线/机场线_车公庙;7号线_农林;7号线_车公庙;9号线_下沙;9号线_车公庙,114.02128,0,,"五险一金,专业培训,年终奖金,弹性工作",3958111,金融,股票数据分析员,,6019981,2,56,5k-7k,0,证券|基金|信托|期货,,农林,7号线,其他证券|基金|信托|期货,不限
0,0,0,"深圳湾,大冲,科技园",深圳,河南万豪建筑工程有限公司,479438,,i/image2/M01/AE/A0/CgotOVv2MwqAP1-eAAA_JM4C04Y075.jpg,河南万豪建筑工程有限公司,500-2000人,2018-12-04 08:21:51,0,南山区,不限,,不需要融资,开发|测试|运维类,2018-12-04,,,threeDays,"移动互联网,O2O","大数据,云计算,Hive,Hadoop",0,全职,1545663134000,22.529312,2号线/蛇口线_后海;2号线/蛇口线_科苑;1号线/罗宝线_高新园;1号线/罗宝线_深大;11号线/机场线_后海,113.948805,0,,弹性上班 法定节假日 技术大牛,5356714,"大数据,云计算,Hive,Hadoop",资深大数据分析工程师,,12069732,0,0,20k-40k,0,数据开发,"Hive,Hadoop",深大,2号线/蛇口线,数据分析,3-5年
0,0,1,"沙嘴,新洲",深圳,深圳市丰宜科技有限公司,310253,"扁平管理,技能培训,岗位晋升,绩效奖金",i/image2/M01/B5/C2/CgoB5lwKTZCAY0snAABKgTy7PkI619.gif,顺丰-丰e足食,2000人以上,2018-12-25 08:56:27,0,福田区,本科,,上市公司,开发|测试|运维类,1天前发布,,,today,"移动互联网,O2O",,0,全职,1545809496000,22.526851,1号线/罗宝线_香蜜湖;3号线/龙岗线_石厦;7号线_上沙;7号线_沙尾;7号线_石厦,114.040978,0,,"发展空间大,品牌影响",4971732,"数据挖掘,MySQL",大数据分析与挖掘工程师,,10602218,2,88,18k-30k,0,数据开发,"数据挖掘,MySQL",石厦,7号线,数据挖掘,3-5年
0,0,1,"竹子林,香蜜湖",深圳,印力商用置业有限公司,263888,"定期体检,通讯津贴,交通补助,年终奖金",i/image2/M00/03/30/CgotOVnCBuOAdhLsAABEbPc3RBk806.png,万科商业地产平台总部,500-2000人,2018-12-26 11:45:57,0,福田区,本科,,不需要融资,开发|测试|运维类,11:45发布,,,today,"数据服务,电子商务","新零售,大数据,数据挖掘",0,全职,1545786778000,22.544342,2号线/蛇口线_深康;2号线/蛇口线_安托山;2号线/蛇口线_侨香;1号线/罗宝线_竹子林;7号线_安托山;7号线_农林,114.01133,0,,"交通便利,待遇好,工作环境好,五险一金",5243885,"新零售,大数据,数据挖掘",大数据分析与挖掘工程师/YX,,10798988,0,0,16k-32k,0,数据开发,数据挖掘,农林,2号线/蛇口线,数据分析,3-5年
0,0,1,"前海,南头,科技园",深圳,腾讯科技(深圳)有限公司,451,"免费班车,成长空间,年度旅游,岗位晋升",image1/M00/00/03/CgYXBlTUV_qALGv0AABEuOJDipU378.jpg,腾讯,2000人以上,2018-12-24 07:36:40,0,南山区,本科,,上市公司,产品|需求|项目类,2天前发布,,"免费班车,年轻团队,学习机会,mac办公,定期团建,开工利是红包",today,"移动互联网 ,游戏","教育,SQL",0,全职,1545806943000,22.540822,1号线/罗宝线_深大;1号线/罗宝线_桃园,113.934457,0,,腾讯平台/优质团队/职业发展,5407234,"教育,SQL",21309-数据分析工程师（腾讯教育子公司编制）,,3309774,2,100,10k-15k,0,数据分析,SQL,桃园,1号线/罗宝线,数据分析,1-3年
0,0,1,"科技园,前海,南头",深圳,腾讯科技(深圳)有限公司,451,"免费班车,成长空间,年度旅游,岗位晋升",image1/M00/00/03/CgYXBlTUV_qALGv0AABEuOJDipU378.jpg,腾讯,2000人以上,2018-12-24 17:17:31,0,南山区,本科,,上市公司,产品|需求|项目类,2天前发布,,"免费班车,年轻团队,学习机会,mac办公,定期团建,开工利是红包",disabled,"移动互联网 ,游戏",,0,全职,1545808603000,22.540412,1号线/罗宝线_深大;1号线/罗宝线_桃园,113.935346,0,,腾讯 大平台 福利好 成长快,5276304,"产品策划,用户增长",PCG10-信息流数据分析产品经理,,7349721,1,10,15k-25k,0,产品经理,"产品策划,用户增长",桃园,1号线/罗宝线,产品经理,3-5年
0,0,1,"科技园,前海,南头",深圳,腾讯科技(深圳)有限公司,451,"免费班车,成长空间,年度旅游,岗位晋升",image1/M00/00/03/CgYXBlTUV_qALGv0AABEuOJDipU378.jpg,腾讯,2000人以上,2018-12-24 17:17:35,0,南山区,本科,,上市公司,产品|需求|项目类,2天前发布,,"免费班车,年轻团队,学习机会,mac办公,定期团建,开工利是红包",disabled,"移动互联网 ,游戏",,0,全职,1545808603000,22.540406,1号线/罗宝线_深大;1号线/罗宝线_桃园,113.935333,0,,"大平台,福利多",5222607,产品策划,信息流数据分析产品经理,,7349721,1,10,15k-25k,0,产品经理,产品策划,桃园,1号线/罗宝线,产品经理,3-5年
0,0,1,"亮马桥,三元桥,燕莎",深圳,上海海万信息科技股份有限公司,128998,,i/image/M00/2A/A6/Cgp3O1cyziuAfM5AAAAe20ZOb-4754.png,海万科技,500-2000人,2018-12-23 22:34:35,0,福田区,大专,,不需要融资,产品|需求|项目类,3天前发布,,,disabled,"移动互联网,金融","大数据,金融,可视化",0,全职,1545619322000,22.535702,2号线/蛇口线_莲花西;2号线/蛇口线_福田;2号线/蛇口线_市民中心;4号线/龙华线_会展中心;4号线/龙华线_市民中心;1号线/罗宝线_岗厦;1号线/罗宝线_会展中心;1号线/罗宝线_购物公园;3号线/龙岗线_石厦;3号线/龙岗线_购物公园;3号线/龙岗线_福田;11号线/机场线_福田;7号线_石厦,114.053855,0,,"最先进的技,大项目,交通便利,环境好",3945445,"大数据,金融,可视化",Python 数据分析,,8310437,2,100,13k-25k,0,数据分析,可视化,岗厦,2号线/蛇口线,数据分析,3-5年
0,0,1,"南油,后海,科技园",深圳,腾讯科技(深圳)有限公司,451,"免费班车,成长空间,年度旅游,岗位晋升",image1/M00/00/03/CgYXBlTUV_qALGv0AABEuOJDipU378.jpg,腾讯,2000人以上,2018-12-26 15:31:31,0,南山区,本科,,上市公司,开发|测试|运维类,15:31发布,,"免费班车,年轻团队,学习机会,mac办公,定期团建,开工利是红包",disabled,"移动互联网 ,游戏",,0,全职,1545806102000,22.522641,2号线/蛇口线_后海;2号线/蛇口线_科苑;1号线/罗宝线_桃园;11号线/机场线_南山;11号线/机场线_后海,113.934494,0,,鹅厂福利,4870767,算法,SA-腾讯社交广告数据分析工程师（微信广告 深圳）,,7422963,1,1,18k-36k,0,数据开发,算法,桃园,2号线/蛇口线,数据分析,1-3年
0,0,1,"科技园,大冲",深圳,深圳虾皮信息科技有限公司,131846,"定期体检,通讯津贴,带薪年假,绩效奖金",i/image/M00/32/F8/Cgp3O1dQBGWARgs_AAAPb7eQrCA058.png,Shopee,2000人以上,2018-12-24 09:57:55,0,南山区,本科,,上市公司,产品|需求|项目类,2天前发布,,,today,电子商务,,0,全职,1545783544000,22.538345,2号线/蛇口线_科苑;1号线/罗宝线_高新园;1号线/罗宝线_深大,113.944704,0,,"新加坡公司,东南亚电商,牛人多,15天年假",5112961,"SPSS,SQL,数据库",BI 数据分析师 (Salesforce 方向),,5626929,1,57,10k-20k,0,数据分析,"SPSS,SQL,数据库",深大,2号线/蛇口线,BI,1-3年
0,0,1,"前海,南头,科技园",深圳,腾讯科技(深圳)有限公司,451,"免费班车,成长空间,年度旅游,岗位晋升",image1/M00/00/03/CgYXBlTUV_qALGv0AABEuOJDipU378.jpg,腾讯,2000人以上,2018-12-25 16:17:56,0,南山区,本科,,上市公司,开发|测试|运维类,1天前发布,,"免费班车,年轻团队,学习机会,mac办公,定期团建,开工利是红包",disabled,"移动互联网 ,游戏","大数据,数据库",0,全职,1545808303000,113.934464,,22.540718,0,,"大数据,数据分析,BI,知识图谱",4835899,"大数据,数据库",数据分析平台开发工程师（Python）,,7350069,4,9,20k-40k,0,后端开发,数据库,,,其他后端开发,3-5年
0,0,1,"沙嘴,新洲",深圳,深圳市丰宜科技有限公司,310253,"扁平管理,技能培训,岗位晋升,绩效奖金",i/image2/M01/B5/C2/CgoB5lwKTZCAY0snAABKgTy7PkI619.gif,顺丰-丰e足食,2000人以上,2018-12-25 08:56:27,0,福田区,本科,,上市公司,产品|需求|项目类,1天前发布,,,today,"移动互联网,O2O",,0,全职,1545809496000,22.526851,1号线/罗宝线_香蜜湖;3号线/龙岗线_石厦;7号线_上沙;7号线_沙尾;7号线_石厦,114.040978,0,,公司平台,4972038,"BI,数据运营,SQL",用户数据分析专员,,10602218,2,88,15k-25k,0,数据分析,"BI,数据运营,SQL",石厦,7号线,数据分析,3-5年
0,0,1,,深圳,晨星资讯（深圳）有限公司,20857,"年底双薪,绩效奖金,五险一金,带薪年假",image2/M00/08/54/CgpzWlYCS8OATWBUAAAJ82qSls0439.png,晨星Morningstar,500-2000人,2018-12-26 10:45:16,0,福田区,本科,,上市公司,金融类,10:45发布,,,today,金融,,1,实习,1545744124000,22.536874,1号线/罗宝线_车公庙;1号线/罗宝线_竹子林;11号线/机场线_车公庙;7号线_农林;7号线_车公庙;9号线_下沙;9号线_车公庙,114.02128,0,,外企，企业文化，福利,5353204,基金分析,股票数据分析实习生,,6019981,2,56,2k-4k,0,证券|基金|信托|期货,基金分析,农林,7号线,其他证券|基金|信托|期货,应届毕业生
0,0,1,"白石洲,大冲,科技园",深圳,中腾信金融信息服务（上海）有限公司,35112,"节日礼物,年底多薪,绩效奖金,岗位晋升",image1/M00/00/53/Cgo8PFTUXRaAJMASAAA4tgqd6o4861.png,中腾信,2000人以上,2018-12-25 14:39:34,0,南山区,本科,,不需要融资,产品|需求|项目类,1天前发布,,"免费休闲游,免费体检,地铁周边,6险1金,前景无限好",today,金融,"金融,SPSS",0,全职,1545807706000,22.540772,1号线/罗宝线_白石洲;1号线/罗宝线_高新园;1号线/罗宝线_深大,113.953243,0,,"年终奖丰富,六险一金,年度体检,五天7小时",4808599,"金融,SPSS",数据分析师 (MJ000034),,9183834,0,0,10k-16k,0,数据分析,SPSS,深大,1号线/罗宝线,数据分析,1-3年
0,0,1,上梅林,深圳,深圳依时货拉拉科技有限公司,41178,"技能培训,专项奖金,绩效奖金,扁平管理",image1/M00/00/66/Cgo8PFTUXWSACW7OAACKSYYZpsc111.png,货拉拉,2000人以上,2018-12-17 17:57:29,0,福田区,本科,,C轮,产品|需求|项目类,2018-12-17,,,today,"移动互联网,O2O",,0,全职,1545804866000,22.570148,4号线/龙华线_莲花北;4号线/龙华线_上梅林;9号线_梅村;9号线_上梅林;9号线_孖岭,114.060162,0,,发展空间发,5376509,业务流程管理,数据分析总监/副总监(J10846),,765920,4,13,30k-50k,0,高端产品职位,业务流程管理,孖岭,4号线/龙华线,数据分析专家,5-10年
0,0,1,"上梅林,莲花北村",深圳,深圳依时货拉拉科技有限公司,41178,"技能培训,专项奖金,绩效奖金,扁平管理",image1/M00/00/66/Cgo8PFTUXWSACW7OAACKSYYZpsc111.png,货拉拉,2000人以上,2018-12-19 11:08:23,0,福田区,本科,,C轮,开发|测试|运维类,2018-12-19,,,today,"移动互联网,O2O","大数据,数据挖掘",0,全职,1545804866000,114.059631,,22.569077,0,,"职位发展,晋升空间,团队氛围好",3782170,"大数据,数据挖掘",数据分析师,,765920,4,13,11k-22k,0,数据开发,数据挖掘,,,数据分析,3-5年
0,0,1,"上梅林,莲花北村",深圳,深圳依时货拉拉科技有限公司,41178,"技能培训,专项奖金,绩效奖金,扁平管理",image1/M00/00/66/Cgo8PFTUXWSACW7OAACKSYYZpsc111.png,货拉拉,2000人以上,2018-12-24 19:49:33,0,福田区,本科,,C轮,开发|测试|运维类,2天前发布,,,today,"移动互联网,O2O",,0,全职,1545804866000,22.562964,4号线/龙华线_莲花北;4号线/龙华线_上梅林;9号线_下梅林;9号线_梅村;9号线_上梅林;9号线_孖岭,114.05533,0,,"下午茶,年终奖,旅游,六险一金",4188513,数据挖掘,技术副总监（数据分析方向）J10758,,765920,4,13,30k-50k,0,数据开发,数据挖掘,孖岭,4号线/龙华线,数据挖掘,5-10年
0,0,1,"上梅林,莲花北村",深圳,深圳依时货拉拉科技有限公司,41178,"技能培训,专项奖金,绩效奖金,扁平管理",image1/M00/00/66/Cgo8PFTUXWSACW7OAACKSYYZpsc111.png,货拉拉,2000人以上,2018-12-24 19:50:40,0,福田区,本科,,C轮,开发|测试|运维类,2天前发布,,,today,"移动互联网,O2O",,1,全职,1545804866000,22.569077,4号线/龙华线_莲花北;4号线/龙华线_上梅林;9号线_梅村;9号线_上梅林;9号线_孖岭,114.059631,0,,"互联网,独角兽,氛围好",5068426,Hadoop,数据分析师（校招技术方向）(J11470),,765920,4,13,10k-15k,0,数据开发,Hadoop,孖岭,4号线/龙华线,数据分析,应届毕业生
0,0,1,"白石洲,大冲,科技园",深圳,中腾信金融信息服务（上海）有限公司,35112,"节日礼物,年底多薪,绩效奖金,岗位晋升",image1/M00/00/53/Cgo8PFTUXRaAJMASAAA4tgqd6o4861.png,中腾信,2000人以上,2018-12-25 14:39:33,0,南山区,本科,,不需要融资,金融类,1天前发布,,"免费休闲游,免费体检,地铁周边,6险1金,前景无限好",today,金融,"金融,风控",0,全职,1545807706000,22.540772,1号线/罗宝线_白石洲;1号线/罗宝线_高新园;1号线/罗宝线_深大,113.953243,0,,"丰厚年终奖,六险一金,平台好,薪资开放",4251208,"金融,风控",反欺诈数据分析师,,9183834,0,0,9k-16k,0,银行,风控,深大,1号线/罗宝线,其他银行职位,1-3年
0,0,1,,深圳,OPPO广东移动通信有限公司,6927,"丰厚年终,扁平管理,追求极致,本分",image1/M00/37/F3/Cgo8PFWkd7iAHDSXAAAKdotH5mM556.jpg,OPPO,2000人以上,2018-12-26 13:07:52,0,南山区,不限,,不需要融资,产品|需求|项目类,13:07发布,,,today,移动互联网,移动互联网,0,全职,1545805821000,22.518785,2号线/蛇口线_登良;2号线/蛇口线_后海;2号线/蛇口线_科苑;11号线/机场线_后海,113.943044,0,,"大平台,给力薪酬,海景办公楼,高配健身房",5455280,移动互联网,业务规划经理（数据分析方向）,,2259801,4,100,15k-30k,0,数据分析,,登良,2号线/蛇口线,数据分析,1-3年
0,0,1,"后海,深圳湾,科技园,后海,后海,深圳湾,深圳湾,科技园,科技园",深圳,OPPO广东移动通信有限公司,6927,"丰厚年终,扁平管理,追求极致,本分",image1/M00/37/F3/Cgo8PFWkd7iAHDSXAAAKdotH5mM556.jpg,OPPO,2000人以上,2018-12-20 14:25:33,0,南山区,本科,,不需要融资,开发|测试|运维类,2018-12-20,,,today,移动互联网,"大数据,数据挖掘",0,全职,1545805821000,22.518792,2号线/蛇口线_登良;2号线/蛇口线_后海;2号线/蛇口线_科苑;11号线/机场线_后海,113.943044,0,,核心事业群 千万级日活 氛围好 组织扁平,3868319,"大数据,数据挖掘",高级数据分析师,,2259801,4,100,20k-40k,0,数据开发,数据挖掘,登良,2号线/蛇口线,数据分析,3-5年
0,0,1,上梅林,深圳,深圳依时货拉拉科技有限公司,41178,"技能培训,专项奖金,绩效奖金,扁平管理",image1/M00/00/66/Cgo8PFTUXWSACW7OAACKSYYZpsc111.png,货拉拉,2000人以上,2018-12-17 17:58:24,0,福田区,本科,,C轮,产品|需求|项目类,2018-12-17,,,today,"移动互联网,O2O",,0,全职,1545804866000,22.570148,4号线/龙华线_莲花北;4号线/龙华线_上梅林;9号线_梅村;9号线_上梅林;9号线_孖岭,114.060162,0,,发展空间发,5376382,BI,高级数据分析专家(J11521),,765920,4,13,30k-50k,0,数据分析,BI,孖岭,4号线/龙华线,数据分析,5-10年
0,0,1,"白石洲,大冲,科技园",深圳,中腾信金融信息服务（上海）有限公司,35112,"节日礼物,年底多薪,绩效奖金,岗位晋升",image1/M00/00/53/Cgo8PFTUXRaAJMASAAA4tgqd6o4861.png,中腾信,2000人以上,2018-12-25 14:39:31,0,南山区,本科,,不需要融资,金融类,1天前发布,,"免费休闲游,免费体检,地铁周边,6险1金,前景无限好",today,金融,"银行,风控",0,全职,1545807706000,22.540772,1号线/罗宝线_白石洲;1号线/罗宝线_高新园;1号线/罗宝线_深大,113.953243,0,,"补充医疗,丰厚年终奖,绩效奖金,定期体检",4162706,"银行,风控",数据分析师（信贷政策方向）,,9183834,0,0,12k-22k,0,风控,风控,深大,1号线/罗宝线,风控,3-5年
0,0,1,"后海,深圳湾,科技园,后海,深圳湾,后海,科技园,深圳湾,科技园",深圳,OPPO广东移动通信有限公司,6927,"丰厚年终,扁平管理,追求极致,本分",image1/M00/37/F3/Cgo8PFWkd7iAHDSXAAAKdotH5mM556.jpg,OPPO,2000人以上,2018-12-20 14:25:33,0,南山区,本科,,不需要融资,开发|测试|运维类,2018-12-20,,,today,移动互联网,"广告营销,大数据,数据挖掘",0,全职,1545805821000,22.518792,2号线/蛇口线_登良;2号线/蛇口线_后海;2号线/蛇口线_科苑;11号线/机场线_后海,113.943044,0,,核心事业群 千万级日活 氛围好 组织扁平,3868291,"广告营销,大数据,数据挖掘",高级广告数据分析师,,2259801,4,100,20k-40k,0,数据开发,数据挖掘,登良,2号线/蛇口线,数据分析,3-5年
0,0,1,"后海,深圳湾,科技园,后海,深圳湾,科技园",深圳,OPPO广东移动通信有限公司,6927,"丰厚年终,扁平管理,追求极致,本分",image1/M00/37/F3/Cgo8PFWkd7iAHDSXAAAKdotH5mM556.jpg,OPPO,2000人以上,2018-12-20 14:25:30,0,南山区,本科,,不需要融资,开发|测试|运维类,2018-12-20,,,today,移动互联网,"游戏,大数据,数据挖掘",0,全职,1545805821000,22.518792,2号线/蛇口线_登良;2号线/蛇口线_后海;2号线/蛇口线_科苑;11号线/机场线_后海,113.943044,0,,亿级用户，大平台，给力薪酬,3487921,"游戏,大数据,数据挖掘",高级游戏数据分析师,,2259801,4,100,15k-30k,0,数据开发,数据挖掘,登良,2号线/蛇口线,数据分析,3-5年
0,0,1,"白石洲,大冲,科技园",深圳,中腾信金融信息服务（上海）有限公司,35112,"节日礼物,年底多薪,绩效奖金,岗位晋升",image1/M00/00/53/Cgo8PFTUXRaAJMASAAA4tgqd6o4861.png,中腾信,2000人以上,2018-12-25 14:39:32,0,南山区,不限,,不需要融资,产品|需求|项目类,1天前发布,,"免费休闲游,免费体检,地铁周边,6险1金,前景无限好",today,金融,金融,0,全职,1545807706000,22.540772,1号线/罗宝线_白石洲;1号线/罗宝线_高新园;1号线/罗宝线_深大,113.953243,0,,"数据大咖带,年终奖丰富,六险一金",4845248,金融,数据分析师（风控） (MJ000140),,9183834,0,0,18k-35k,0,数据分析,,深大,1号线/罗宝线,数据分析,3-5年
0,0,1,"科技园,大冲",深圳,北京通力互联技术服务有限公司,123777,"绩效奖金,交通补助,定期体检,通讯津贴",i/image/M00/2E/03/CgqKkVc9jmCAI8DpAAD09YLPnBk157.png,通力互联,2000人以上,2018-12-24 15:23:00,0,南山区,本科,,不需要融资,运营|编辑|客服类,2天前发布,,,today,"电子商务,企业服务",广告营销,0,全职,1545795297000,22.546344,1号线/罗宝线_高新园;1号线/罗宝线_深大,113.947593,0,,"免费早晚餐,上市公司,年终奖,节日福利",4579888,广告营销,数据分析运营助理,,9328764,0,0,6k-7k,0,运营,,深大,1号线/罗宝线,其他运营,1-3年
0,0,1,,深圳,深圳市乐易网络股份有限公司,33627,"技术大牛,两次年度旅游,福利倍儿好,年终奖丰厚",i/image/M00/57/05/CgqKkVfOIv6AQwyPAAEg94dso0Q147.png,乐易网络,150-500人,2018-12-26 15:49:41,0,南山区,硕士,,A轮,开发|测试|运维类,15:49发布,,,today,"移动互联网,游戏","游戏,大数据,MySQL,SQLServer",0,全职,1545808840000,22.533413,2号线/蛇口线_科苑;1号线/罗宝线_高新园;1号线/罗宝线_深大,113.94604,0,,"高配团队,年终奖,两次调薪,带薪旅行",5195119,"游戏,大数据,MySQL,SQLServer",数据分析,,569371,0,100,15k-30k,0,数据开发,"MySQL,SQLServer",深大,2号线/蛇口线,数据分析,3-5年
0,0,1,,深圳,深圳数位传媒科技有限公司,135283,"大数据弄潮儿,大牛云集,高并发,14薪起",i/image/M00/BE/5B/Cgp3O1jMx5WAK6qqAAAhwXv4yuM019.jpg,数位科技,150-500人,2018-12-26 11:48:17,0,南山区,本科,,B轮,开发|测试|运维类,11:48发布,,,today,"移动互联网,数据服务",金融,0,全职,1545803639000,22.523714,2号线/蛇口线_后海;2号线/蛇口线_科苑;11号线/机场线_后海,113.940802,0,,"14薪起,股票期权,大牛团队,技术氛围好",4210417,金融,数据分析师,,4549189,1,100,25k-50k,0,数据开发,,科苑,2号线/蛇口线,数据分析,5-10年
0,0,1,,深圳,深圳暴雪奇迹科技有限公司,80072,"节日礼物,年底双薪,带薪年假,定期体检",image1/M00/33/45/Cgo8PFWTR6qAI9boAAANKoSH0G8594.png?cc=0.2717344197624579,暴雪奇迹,50-150人,2018-12-26 09:40:47,0,南山区,本科,,未融资,产品|需求|项目类,09:40发布,,,today,游戏,"大数据,游戏,数据运营",0,全职,1545788411000,22.550455,1号线/罗宝线_高新园;1号线/罗宝线_深大,113.946628,0,,年底双薪、项目奖金、年度体检、年度旅游,5361596,"大数据,游戏,数据运营",数据分析专员,,6237680,0,0,15k-20k,0,数据分析,数据运营,深大,1号线/罗宝线,数据分析,3-5年
0,0,1,"科技园,南山医院,大冲",深圳,深圳白骑士大数据有限公司,128065,"专项奖金,大数据,反欺诈,带薪年假",i/image/M00/3D/89/Cgp3O1dyQFiAS337AAAJ8SnzRcM883.png,深圳白骑士大数据有限公司,50-150人,2018-12-24 09:23:13,0,南山区,硕士,,A轮,开发|测试|运维类,2天前发布,,,today,"企业服务,金融","金融,算法,数据挖掘",0,全职,1545786535000,22.99368,,113.993578,0,,"平台好,创新型,发展迅速,股权期权",4230035,"金融,算法,数据挖掘",数据分析总监,,4845927,1,28,38k-65k,0,数据开发,"算法,数据挖掘",,,数据分析,5-10年
0,0,1,,深圳,深圳市紫川软件有限公司,63500,"节日礼物,年底双薪,绩效奖金,岗位晋升",image1/M00/1E/0B/Cgo8PFUs7oaAUTecAAAycd-TRzY723.jpg,紫川软件,500-2000人,2018-12-26 08:36:41,0,福田区,本科,,不需要融资,开发|测试|运维类,08:36发布,,,today,"电子商务,金融","大数据,数据挖掘",0,全职,1545806325000,22.541325,2号线/蛇口线_燕南;2号线/蛇口线_大剧院;1号线/罗宝线_大剧院;1号线/罗宝线_科学馆;3号线/龙岗线_通新岭;3号线/龙岗线_红岭;9号线_红岭;9号线_红岭南;9号线_鹿丹村,114.10273,0,,周末双休 五险一金 员工旅游,4059267,"大数据,数据挖掘",数据分析师,,1583995,1,100,9k-14k,0,数据开发,数据挖掘,鹿丹村,2号线/蛇口线,数据分析,3-5年
0,0,1,,深圳,深圳光汇石油集团股份有限公司,48903,"股票期权,带薪年假,五险一金,午餐补助",image1/M00/00/7F/Cgo8PFTUXc2AYP1qAACHBVo9cuI530.jpg,光汇石油,500-2000人,2018-12-20 11:17:37,0,福田区,本科,,上市公司,产品|需求|项目类,2018-12-20,,"年底双薪,免费健身房,每天管两餐,定期团建,提供住宿",disabled,其他,,0,全职,1545786992000,22.50635,,114.05691,0,,"五险一金,带薪年假,团建活动,上市公司",5163293,数据运营,数据分析经理,,1509036,1,1,15k-30k,0,数据分析,数据运营,,,数据分析,3-5年
0,0,1,"南油,海王大厦,蛇口",深圳,深圳市环球易购电子商务有限公司,83025,"节日礼物,股票期权,带薪年假,绩效奖金",image1/M00/38/9F/CgYXBlWmIt6Af8k5AABvK21LZWM490.jpg?cc=0.211507520172745,环球易购,2000人以上,2018-12-26 09:26:11,0,南山区,本科,,上市公司,产品|需求|项目类,09:26发布,,,today,电子商务,,0,全职,1545791367000,22.515272,11号线/机场线_南山,113.922988,0,,上市公司 福利待遇优厚,1574129,,数据分析师,,2117758,4,100,5k-8k,0,数据分析,,南山,11号线/机场线,数据分析,不限
0,0,1,"竹子林,香蜜湖,车公庙",深圳,天下支付科技有限公司,164715,"绩效奖金,年底双薪,带薪年假,交通补助",i/image/M00/86/CF/Cgp3O1hlzsuAEV6NAADtLNIkivU223.png,天下支付,150-500人,2018-12-21 08:57:06,0,福田区,本科,,不需要融资,产品|需求|项目类,2018-12-21,,,disabled,"移动互联网,金融","电商,支付",0,全职,1545388518000,22.537117,1号线/罗宝线_香蜜湖;1号线/罗宝线_车公庙;1号线/罗宝线_竹子林;11号线/机场线_车公庙;7号线_农林;7号线_车公庙;9号线_下沙;9号线_车公庙,114.025299,0,,"团队旅游,帅哥美女,定期体检",4780971,"电商,支付",数据分析员,,6723977,0,0,6k-12k,0,数据分析,,农林,7号线,数据分析,1-3年
0,0,1,,深圳,风变科技（深圳）有限公司,321025,"专项奖金,带薪年假,定期体检,六险一金",i/image3/M00/19/DB/Cgq2xlp5XsCAQwLWAAC33_3CyeE403.jpg,熊猫书院,50-150人,2018-12-26 09:09:26,0,南山区,硕士,,A轮,开发|测试|运维类,09:09发布,,,today,"移动互联网,教育","大数据,数据挖掘",0,全职,1545806963000,22.546157,1号线/罗宝线_高新园;1号线/罗宝线_深大,113.946882,0,,"驱动开发,团队年轻,团队年轻,牛人带你",5021443,"大数据,数据挖掘",数据分析师,,9813698,2,66,10k-15k,0,数据开发,数据挖掘,深大,1号线/罗宝线,数据分析,1-3年
0,0,1,南头,深圳,深圳市和讯华谷信息技术有限公司,917,"五险一金,文体活动,团建旅游,美味晚餐",i/image/M00/37/20/CgqKkVdfms6Ac6dNAABY3gBvuqI944.jpg,极光,500-2000人,2018-12-26 13:39:14,0,南山区,本科,,上市公司,开发|测试|运维类,13:39发布,,,today,"移动互联网,数据服务","电商,广告营销,数据挖掘",0,全职,1545809506000,22.550007,1号线/罗宝线_新安,113.907458,0,,"数据量大,攻城狮氛围,牛人多,弹性工作",2857336,"电商,广告营销,数据挖掘",高级数据分析师,,2153176,1,89,20k-30k,0,数据开发,数据挖掘,新安,1号线/罗宝线,数据分析,3-5年
0,0,1,,深圳,深圳市乐活电子商务有限公司,36534,"技能培训,节日礼物,年度旅游,扁平管理",i/image/M00/16/9D/Cgp3O1bv1MKANc_eAAAzdZOSecA505.jpg,LOHO 眼镜,500-2000人,2018-12-25 17:16:08,0,宝安区,本科,,C轮,产品|需求|项目类,1天前发布,,,today,"移动互联网,O2O",,0,全职,1545793956000,22.56222,1号线/罗宝线_宝安中心;1号线/罗宝线_宝体;5号线/环中线_宝安中心;5号线/环中线_翻身;5号线/环中线_灵芝,113.89372,0,,C轮融资,5453303,"数据运营,数据库",数据分析师,,639843,0,0,11k-15k,0,数据分析,"数据运营,数据库",宝安中心,5号线/环中线,数据分析,1-3年
0,0,1,"东门,留医部,罗湖区委",深圳,深圳世联行地产顾问股份有限公司,11885,"五险一金,通讯津贴,带薪年假,年底双薪",image1/M00/00/17/Cgo8PFTUWEyAdVplAACPfhlUvwM417.png,世联行,2000人以上,2018-12-26 09:50:21,0,罗湖区,本科,,上市公司,产品|需求|项目类,09:50发布,,,today,企业服务,"金融,SPSS",0,全职,1545804184000,22.544938,2号线/蛇口线_湖贝;2号线/蛇口线_黄贝岭;1号线/罗宝线_老街;3号线/龙岗线_老街;3号线/龙岗线_晒布;3号线/龙岗线_翠竹;5号线/环中线_黄贝岭;9号线_人民南;9号线_向西村;9号线_文锦,114.127163,0,,公司平台大，发展前景好,4034151,"金融,SPSS",数据分析岗,,148159,0,0,5k-8k,0,数据分析,SPSS,黄贝岭,2号线/蛇口线,数据分析,不限
0,0,1,科技园,深圳,深圳友宝科斯科技有限公司,110293,"带薪年假,定期体检,全勤奖,商业保险",i/image/M00/32/F6/Cgp3O1dP_7-ANNv0AABUq6wo7zk380.png,友宝,500-2000人,2018-12-25 11:36:44,0,南山区,大专,,上市公司,产品|需求|项目类,1天前发布,,,today,"O2O,移动互联网",,0,全职,1545790710000,22.540955,1号线/罗宝线_深大;1号线/罗宝线_桃园,113.932742,0,,"周末双休,五险一金,全勤奖,年终奖励",5381690,"数据运营,数据库",数据分析,,8495383,2,84,5k-7k,0,数据分析,"数据运营,数据库",桃园,1号线/罗宝线,数据分析,1-3年
0,0,1,"深圳湾,后海,科技园",深圳,北京魅动力教育咨询有限公司,16213,"疯狂地盈利,奇迹的模式,弹性工作,独特的社区",i/image2/M01/BB/63/CgoB5lwbQkuAT4KDAAA1-tPJDqE446.png,魅动力,150-500人,2018-12-26 09:31:12,0,南山区,本科,,C轮,产品|需求|项目类,09:31发布,,,today,移动互联网,"移动互联网,社交",0,全职,1545787499000,22.527875,2号线/蛇口线_后海;2号线/蛇口线_科苑;1号线/罗宝线_深大;11号线/机场线_后海,113.941717,0,,年轻团队 氛围轻松有活力 扁平化管理,5364474,"移动互联网,社交",数据分析师,,5203504,1,100,8k-15k,0,数据分析,,深大,2号线/蛇口线,数据分析,3-5年
0,0,1,科技园,深圳,海南新浪爱问普惠科技有限公司,175085,"午餐补助,通讯津贴,带薪年假,交通补助",i/image3/M00/19/E7/Cgq2xlp5ZHWACZ9qAAA0HOXbMCg842.png,海南新浪爱问普惠科技有限公司,150-500人,2018-12-24 15:05:59,0,南山区,本科,,未融资,产品|需求|项目类,2天前发布,,,today,金融,大数据,0,全职,1545789811000,22.545151,1号线/罗宝线_深大,113.937903,0,,"餐补,年终奖",4540599,大数据,高级数据分析师,,11796966,3,100,25k-30k,0,数据分析,,深大,1号线/罗宝线,数据分析,5-10年
0,0,1,"科技园,白石洲,大冲",深圳,平安科技（深圳）有限公司,24748,"节日礼物,年度旅游,岗位晋升,技能培训",i/image/M00/7D/7C/Cgp3O1hHwlSAXh_pAACcLWenfL8606.jpg,平安科技,2000人以上,2018-12-26 00:00:09,0,南山区,本科,,不需要融资,产品|需求|项目类,00:00发布,,,today,金融,,0,全职,1545804943000,22.538492,1号线/罗宝线_白石洲;1号线/罗宝线_高新园;1号线/罗宝线_深大,113.957451,0,,绩效丰厚,5285486,产品策划,产品运营经理（数据分析方向）,,811225,4,35,15k-30k,0,产品经理,产品策划,深大,1号线/罗宝线,产品经理,不限
0,0,1,,深圳,OPPO广东移动通信有限公司,6927,"丰厚年终,扁平管理,追求极致,本分",image1/M00/37/F3/Cgo8PFWkd7iAHDSXAAAKdotH5mM556.jpg,OPPO,2000人以上,2018-12-20 14:25:33,0,南山区,本科,,不需要融资,开发|测试|运维类,2018-12-20,,,today,移动互联网,移动互联网,0,全职,1545805821000,22.518785,2号线/蛇口线_登良;2号线/蛇口线_后海;2号线/蛇口线_科苑;11号线/机场线_后海,113.943044,0,,给力薪酬,5310137,移动互联网,高级数据分析师（Push方向）,,2259801,4,100,15k-30k,0,数据开发,,登良,2号线/蛇口线,数据分析,1-3年
0,0,1,,深圳,深圳众禄基金销售股份有限公司,50285,"股票期权,绩效奖金,带薪年假,通讯津贴",i/image2/M00/18/65/CgotOVn65YSAAu7lAAAVwDCKc5w606.png,众禄基金,150-500人,2018-12-26 11:29:41,0,罗湖区,本科,,上市公司,开发|测试|运维类,11:29发布,,,today,"移动互联网,金融","大数据,数据挖掘",0,全职,1545800087000,114.106642,,22.565383,0,,"新三板企业,高速发展,技术新颖,入职五险",3819585,"大数据,数据挖掘",数据分析师,,1509336,1,61,12k-24k,0,数据开发,数据挖掘,,,数据分析,3-5年
0,0,1,,深圳,深圳市霸下科技有限公司,170335,,i/image/M00/97/9D/CgqKkVidjLmAUP51AAAqDXwYoq4199.png,霸下科技,50-150人,2018-12-26 09:23:22,0,龙华新区,大专,,不需要融资,产品|需求|项目类,09:23发布,,,today,电子商务,"移动互联网,电商,SPSS,数据运营,数据库",0,全职,1545786568000,22.672986,4号线/龙华线_清湖,114.044461,0,,"五险一金,员工旅游,公司氛围好,岗位晋升",5410743,"移动互联网,电商,SPSS,数据运营,数据库",数据分析师,,7796897,1,100,10k-20k,0,数据分析,"SPSS,数据运营,数据库",清湖,4号线/龙华线,数据分析,1-3年
0,0,1,科技园,深圳,云智惠（北京）投资管理有限公司,309770,,i/image/M00/7E/89/CgpEMlpNkHKAIUycAAAGSa-uKiA553.png,云智惠,500-2000人,2018-12-17 14:36:47,0,南山区,本科,,未融资,产品|需求|项目类,2018-12-17,,,overSevenDays,金融,,0,全职,1545117358000,113.952802,,22.539255,0,,"有潜力,领导好,氛围佳",5027288,,数据分析师,,9657792,0,0,10k-20k,0,产品经理,,,,数据产品经理,3-5年
0,0,1,"西丽,大冲,科技园",深圳,东莞团贷网互联网科技服务有限公司,25576,"节日礼物,带薪年假,年度旅游,定期体检",i/image/M00/18/6E/Cgp3O1bzun2ALs4CAAJHGWlcbcc449.png,团贷网,2000人以上,2018-12-26 09:30:56,0,南山区,本科,,D轮及以上,开发|测试|运维类,09:30发布,,,today,"移动互联网,金融",互联网金融,0,全职,1545809864000,22.554745,,113.950514,0,,七险一金、奖金福利多、发展空间大,5402320,互联网金融,数据分析师 (MJ000556),,8055969,0,0,8k-15k,0,数据开发,,,,数据分析,3-5年
0,0,1,"莲花二村,莲花一村,岗厦,莲花二村,莲花一村,岗厦,莲花一村,岗厦",深圳,上海海万信息科技股份有限公司,128998,,i/image/M00/2A/A6/Cgp3O1cyziuAfM5AAAAe20ZOb-4754.png,海万科技,500-2000人,2018-12-26 11:47:51,0,福田区,大专,,不需要融资,产品|需求|项目类,11:47发布,,,disabled,"移动互联网,金融","大数据,金融",0,全职,1545790218000,22.548627,2号线/蛇口线_莲花西;2号线/蛇口线_福田;2号线/蛇口线_市民中心;2号线/蛇口线_岗厦北;4号线/龙华线_市民中心;4号线/龙华线_少年宫;4号线/龙华线_莲花北;3号线/龙岗线_福田;3号线/龙岗线_少年宫;3号线/龙岗线_莲花村;11号线/机场线_福田,114.06017,0,,"旅游,年终奖,过节费,环境好",3918175,"大数据,金融",数据分析,,4383654,1,100,10k-20k,0,数据分析,,少年宫,2号线/蛇口线,数据分析,3-5年
0,0,1,"深圳湾,科技园",深圳,深圳云天励飞技术有限公司,95529,"节日礼物,带薪年假,年度旅游,开放务实",i/image/M00/45/77/CgqKkVeIdGiANSx7AAAVacVYVAo280.JPG,云天励飞,500-2000人,2018-12-24 11:56:02,0,南山区,本科,,A轮,开发|测试|运维类,2天前发布,,,today,移动互联网,,0,全职,1545808114000,22.530438,2号线/蛇口线_科苑;1号线/罗宝线_高新园;1号线/罗宝线_深大,113.952696,0,,"技术大牛,独角兽,成长快,气氛融洽",3842793,数据挖掘,大数据数据开发工程师/大数据数据分析师,,2571879,0,0,15k-30k,0,数据开发,数据挖掘,深大,2号线/蛇口线,数据分析,3-5年
0,0,1,,深圳,深圳市立创电子商务有限公司,174527,"节日礼物,五险一金,水果、下午茶,带薪年假",i/image2/M01/AB/2E/CgoB5lvtCheAKVWGAAAW12iA0Eo218.jpg,立创商城,150-500人,2018-12-26 10:50:53,0,福田区,本科,,A轮,开发|测试|运维类,10:50发布,,,disabled,"电子商务,硬件",电商,0,全职,1545806755000,22.549401,2号线/蛇口线_香梅北;2号线/蛇口线_景田;2号线/蛇口线_莲花西;1号线/罗宝线_香蜜湖;9号线_香梅;9号线_景田;9号线_梅景,114.04274,0,,周末双休，五险一金，下午茶，工作氛围好,5389270,电商,数据分析师（用户方向）,,7831169,5,100,15k-20k,0,数据开发,,景田,2号线/蛇口线,数据分析,1-3年
0,0,1,"科技园,大冲",深圳,金蝶软件（中国）有限公司,6566,"年底双薪,节日礼物,技能培训,岗位晋升",i/image2/M00/48/95/CgotOVrf4a6AeNuJAABB14uGkI4724.jpg,金蝶,2000人以上,2018-12-24 19:07:14,0,南山区,本科,,上市公司,开发|测试|运维类,2天前发布,,,threeDays,"移动互联网,电子商务",,0,全职,1545702878000,22.533911,2号线/蛇口线_科苑;1号线/罗宝线_白石洲;1号线/罗宝线_高新园;1号线/罗宝线_深大,113.954951,0,,大平台,5239060,,数据分析师,,5698967,0,0,15k-30k,0,数据开发,,深大,2号线/蛇口线,数据分析,3-5年
0,0,1,,深圳,深圳市乐易网络股份有限公司,33627,"技术大牛,两次年度旅游,福利倍儿好,年终奖丰厚",i/image/M00/57/05/CgqKkVfOIv6AQwyPAAEg94dso0Q147.png,乐易网络,150-500人,2018-12-26 15:49:41,0,南山区,硕士,,A轮,开发|测试|运维类,15:49发布,,,today,"移动互联网,游戏","游戏,移动互联网,数据处理,SQLServer",0,全职,1545808840000,22.533413,2号线/蛇口线_科苑;1号线/罗宝线_高新园;1号线/罗宝线_深大,113.94604,0,,"海外手游,高配团队,年终奖,带薪旅行",5182889,"游戏,移动互联网,数据处理,SQLServer",数据分析,,569371,0,100,10k-15k,0,数据开发,"数据处理,SQLServer",深大,2号线/蛇口线,数据分析,1年以下
0,0,1,"大冲,科技园",深圳,北京通力互联技术服务有限公司,123777,"绩效奖金,交通补助,定期体检,通讯津贴",i/image/M00/2E/03/CgqKkVc9jmCAI8DpAAD09YLPnBk157.png,通力互联,2000人以上,2018-12-24 15:22:57,0,南山区,本科,,不需要融资,开发|测试|运维类,2天前发布,,,today,"电子商务,企业服务",大数据,0,全职,1545795297000,22.546596,1号线/罗宝线_高新园;1号线/罗宝线_深大,113.94724,0,,"周末双休,免费班车,免费早餐,绩效奖",4461562,大数据,数据分析,,9328764,0,0,7k-14k,0,数据开发,,深大,1号线/罗宝线,数据分析,1-3年
0,0,1,科技园,深圳,深圳市曾点信息技术培训有限公司,173366,,i/image/M00/A6/A1/Cgp3O1itIAeAHioDAAA7hv5mYDc828.jpg,曾点,150-500人,2018-12-25 10:34:23,0,南山区,本科,,不需要融资,产品|需求|项目类,1天前发布,,,today,移动互联网、企业服务,移动互联网,0,全职,1545790007000,22.525353,2号线/蛇口线_后海;2号线/蛇口线_科苑;11号线/机场线_后海,113.939728,0,,"五险一金,年终奖,发展平台佳,晋升空间",5206061,移动互联网,数据分析师,,6399393,0,0,8k-10k,0,数据分析,,科苑,2号线/蛇口线,数据分析,3-5年
0,0,1,"科技园,南山医院,大冲",深圳,深圳市创梦天地科技有限公司,401,"绩效奖金,五险一金,带薪年假,节日礼物",image1/M00/00/03/CgYXBlTUV_mAAUZkAABiNm6Emp4030.jpg,乐逗游戏,500-2000人,2018-12-24 10:53:00,0,南山区,本科,,上市公司,产品|需求|项目类,2天前发布,,,today,移动互联网,,0,全职,1545807937000,22.54834,1号线/罗宝线_高新园;1号线/罗宝线_深大,113.9446,0,,待遇好,4889330,数据运营,数据分析师,,9326293,0,0,20k-30k,0,数据分析,数据运营,深大,1号线/罗宝线,数据分析,3-5年
0,0,1,"新安,翻身路",深圳,杭州边锋网络技术有限公司,593,"五险一金,交通补助,绩效奖金,节日礼物",i/image/M00/59/6D/CgpFT1mKoryAchsAAAASDmQdWoA347.png,边锋,500-2000人,2018-12-19 13:19:57,0,宝安区,本科,,不需要融资,产品|需求|项目类,2018-12-19,,,today,"移动互联网,游戏","游戏,增长黑客（GrowthHacking）,数据运营",0,全职,1545807450000,22.552491,1号线/罗宝线_新安;1号线/罗宝线_宝安中心;1号线/罗宝线_宝体;5号线/环中线_临海;5号线/环中线_宝华;5号线/环中线_宝安中心;5号线/环中线_翻身;11号线/机场线_宝安,113.886319,0,,"优秀的你,国企,团队氛围棒,低息房贷",5186742,"游戏,增长黑客（GrowthHacking）,数据运营",数据分析,,6855276,2,2,10k-20k,0,数据分析,"增长黑客（GrowthHacking）,数据运营",宝安中心,5号线/环中线,数据分析,1-3年
0,0,1,"竹子林,香蜜湖,车公庙",深圳,深圳市换换优品科技有限公司,155970,"带薪年假,股票期权,专项奖金,晋升空间大",i/image/M00/87/B3/Cgp3O1hrU6WACxioAABRVlDj6U8053.png,换换优品,50-150人,2018-12-25 21:18:08,0,福田区,大专,,不需要融资,产品|需求|项目类,1天前发布,,,threeDays,"移动互联网,电子商务",移动互联网,0,全职,1545702848000,22.537385,1号线/罗宝线_香蜜湖;1号线/罗宝线_车公庙;1号线/罗宝线_竹子林;11号线/机场线_车公庙;7号线_农林;7号线_车公庙;9号线_下沙;9号线_车公庙,114.025808,0,,空间发展大 平台好,5453855,移动互联网,数据分析工程师,,6546191,1,40,15k-30k,0,数据分析,,农林,7号线,数据分析,1-3年
0,0,1,"科技园,大冲,深圳湾",深圳,深圳市小满科技有限公司,5834,"绩效奖金,五险一金,带薪年假,节日礼物",i/image/M00/02/44/CgqKkVaKO-6AZIvoAAC86L_5i-o219.JPG,小满科技,150-500人,2018-12-24 12:13:27,0,南山区,本科,,C轮,综合职能|高级管理,2天前发布,,,today,"企业服务,数据服务","企业服务,会计,审计,成本,统计",0,全职,1545810005000,22.542071,1号线/罗宝线_白石洲;1号线/罗宝线_高新园;1号线/罗宝线_深大,113.955443,0,,"有晋升,老板好,发展快",4753666,"企业服务,会计,审计,成本,统计",数据分析师,,59146,1,76,12k-24k,0,财务,"会计,审计,成本,统计",深大,1号线/罗宝线,会计,5-10年
0,0,1,上步,深圳,深圳市油柑科技有限公司,385673,"绩效奖金,带薪年假,优秀团队,五险一金",i/image2/M00/4D/23/CgoB5lr74eSAeZiaAAAETTMB0wY864.png,油柑网,15-50人,2018-12-26 13:29:31,0,福田区,本科,,未融资,产品|需求|项目类,13:29发布,,,today,电子商务,"移动互联网,数据运营,数据库,增长黑客（GrowthHacking）",0,全职,1545802149000,22.543031,2号线/蛇口线_华强北;2号线/蛇口线_燕南;1号线/罗宝线_科学馆;1号线/罗宝线_华强路;3号线/龙岗线_华新;3号线/龙岗线_通新岭;7号线_赤尾;7号线_华强南;7号线_华强北;7号线_华新;7号线_黄木岗,114.085209,0,,地铁附近，包午餐，团队出国游,5076301,"移动互联网,数据运营,数据库,增长黑客（GrowthHacking）",数据分析,,5508293,0,0,8k-15k,0,数据分析,"数据运营,数据库,增长黑客（GrowthHacking）",华强北,2号线/蛇口线,数据分析,1-3年
0,0,1,"新安,翻身路",深圳,维沃移动通信有限公司,19875,"年终分红,带薪年假,年度旅游,岗位晋升",image1/M00/00/25/Cgo8PFTUWH-Ab57wAABKOdLbNuw116.png,vivo,2000人以上,2018-12-24 16:01:54,0,宝安区,本科,,未融资,开发|测试|运维类,2天前发布,,,threeDays,移动互联网,,0,全职,1545705941000,22.551716,1号线/罗宝线_新安;1号线/罗宝线_宝安中心;1号线/罗宝线_宝体;5号线/环中线_临海;5号线/环中线_宝华;5号线/环中线_宝安中心;5号线/环中线_翻身;11号线/机场线_宝安,113.88742,0,,"平台大,海量用户,技术氛围好,个人成长快",5004419,,【急招】数据分析师（互联网）,,4449488,2,33,20k-30k,0,数据开发,,宝安中心,5号线/环中线,数据分析,3-5年
0,0,1,"上梅林,莲花北村,笔架山",深圳,万科物业发展股份有限公司,8350,"社区o2o,原始股权,弹性工作制,互联网+",image2/M00/08/03/CgqLKVYBEtqAD2vhAAARnNY0kzg058.png,万科物业,2000人以上,2018-12-20 18:05:52,0,福田区,本科,,不需要融资,产品|需求|项目类,2018-12-20,,,sevenDays,"O2O,生活服务","大数据,BI,SPSS",0,全职,1545300437000,22.567856,4号线/龙华线_莲花北;4号线/龙华线_上梅林;9号线_梅村;9号线_上梅林;9号线_孖岭,114.062189,0,,"弹性工作,团队好",2894326,"大数据,BI,SPSS",高级数据分析师,,4674477,1,7,15k-25k,0,数据分析,"BI,SPSS",孖岭,4号线/龙华线,数据分析,3-5年
0,0,1,"上梅林,莲花北村",深圳,上海海万信息科技股份有限公司,128998,,i/image/M00/2A/A6/Cgp3O1cyziuAfM5AAAAe20ZOb-4754.png,海万科技,500-2000人,2018-12-26 11:47:53,0,福田区,本科,,不需要融资,开发|测试|运维类,11:47发布,,,disabled,"移动互联网,金融",,0,全职,1545790218000,22.568264,4号线/龙华线_莲花北;4号线/龙华线_上梅林;9号线_梅村;9号线_上梅林;9号线_孖岭,114.059297,0,,"年终奖,双休,过节费,旅游",3637090,"Hadoop,数据挖掘,数据仓库",数据分析师,,4383654,1,100,10k-15k,0,数据开发,"Hadoop,数据挖掘,数据仓库",孖岭,4号线/龙华线,数据分析,3-5年
0,0,1,上梅林,深圳,深圳依时货拉拉科技有限公司,41178,"技能培训,专项奖金,绩效奖金,扁平管理",image1/M00/00/66/Cgo8PFTUXWSACW7OAACKSYYZpsc111.png,货拉拉,2000人以上,2018-12-26 09:34:47,0,福田区,本科,,C轮,开发|测试|运维类,09:34发布,,,today,"移动互联网,O2O",,0,全职,1545804866000,22.5696,4号线/龙华线_莲花北;4号线/龙华线_上梅林;9号线_梅村;9号线_上梅林;9号线_孖岭,114.060144,0,,年终奖 下午茶 团建 不打卡,5454132,,高级数据分析师,,765920,4,13,25k-50k,0,数据开发,,孖岭,4号线/龙华线,数据分析,5-10年
0,0,1,"大冲,科技园",深圳,深圳市随手科技有限公司,13809,"带薪年假,弹性工作时间,年度旅游,岗位晋升",i/image2/M01/8E/64/CgotOVufFriANmZGAACLh_igNgY834.jpg,随手科技,500-2000人,2018-12-24 10:22:07,0,南山区,本科,,C轮,产品|需求|项目类,2天前发布,,,today,"移动互联网,金融",,0,全职,1545729700000,22.534231,2号线/蛇口线_科苑;1号线/罗宝线_白石洲;1号线/罗宝线_高新园;1号线/罗宝线_深大,113.954869,0,,团队氛围好，发展空间大,5420463,,数据分析师,,9248492,0,0,13k-25k,0,数据分析,,深大,2号线/蛇口线,数据分析,3-5年
0,0,1,,深圳,北京字节跳动科技有限公司,62,"扁平管理,弹性工作,大厨定制三餐,就近租房补贴",i/image2/M01/79/0A/CgoB5ltr2A-AM5SFAADbT9jQCn841.jpeg,字节跳动,2000人以上,2018-12-25 22:59:31,0,南山区,本科,,C轮,开发|测试|运维类,1天前发布,,,today,"移动互联网,数据服务",,0,全职,1545809090000,22.511303,,22.511303,0,,六险一金，弹性工作，免费三餐，租房补贴,5142263,数据挖掘,数据分析师-创新工具,,9798036,0,0,20k-40k,0,数据开发,数据挖掘,,,其他数据开发,1-3年
0,0,1,"白石洲,大冲,科技园",深圳,中腾信金融信息服务（上海）有限公司,35112,"节日礼物,年底多薪,绩效奖金,岗位晋升",image1/M00/00/53/Cgo8PFTUXRaAJMASAAA4tgqd6o4861.png,中腾信,2000人以上,2018-12-25 14:39:33,0,南山区,本科,,不需要融资,金融类,1天前发布,,"免费休闲游,免费体检,地铁周边,6险1金,前景无限好",today,金融,"互联网金融,银行,风控,行业研究",0,全职,1545807706000,22.540772,1号线/罗宝线_白石洲;1号线/罗宝线_高新园;1号线/罗宝线_深大,113.953243,0,,"丰富奖金,弹性工作,六险一金,平台大",5003094,"互联网金融,银行,风控,行业研究",数据分析师 (MJ000174),,9183834,0,0,12k-22k,0,互联网金融,"风控,行业研究",深大,1号线/罗宝线,分析师,1-3年
0,0,1,,深圳,深圳市乐易网络股份有限公司,33627,"技术大牛,两次年度旅游,福利倍儿好,年终奖丰厚",i/image/M00/57/05/CgqKkVfOIv6AQwyPAAEg94dso0Q147.png,乐易网络,150-500人,2018-12-26 15:49:40,0,南山区,硕士,,A轮,产品|需求|项目类,15:49发布,,,today,"移动互联网,游戏","游戏,SQL",0,全职,1545808840000,22.533413,2号线/蛇口线_科苑;1号线/罗宝线_高新园;1号线/罗宝线_深大,113.94604,0,,"大神指导,高配团队,年终奖,带薪旅行",5195111,"游戏,SQL",数据分析,,569371,0,100,10k-20k,0,数据分析,SQL,深大,2号线/蛇口线,数据分析,1-3年
0,0,1,,深圳,风变科技（深圳）有限公司,321025,"专项奖金,带薪年假,定期体检,六险一金",i/image3/M00/19/DB/Cgq2xlp5XsCAQwLWAAC33_3CyeE403.jpg,熊猫书院,50-150人,2018-12-26 09:09:28,0,南山区,硕士,,A轮,开发|测试|运维类,09:09发布,,,today,"移动互联网,教育","大数据,数据挖掘",1,实习,1545806963000,22.546157,1号线/罗宝线_高新园;1号线/罗宝线_深大,113.946882,0,,"技术氛围,技术前沿,数据意识,发展舞台",4842134,"大数据,数据挖掘",实习岗-数据分析,,9813698,2,66,4k-8k,0,数据开发,数据挖掘,深大,1号线/罗宝线,数据分析,不限
0,0,1,"深圳湾,南油,后海",深圳,深圳美西西餐饮管理有限公司,218335,"年底双薪,带薪年假,节日礼物,美女多",i/image2/M01/63/AF/CgoB5ls8Zf6Af_o9AAA92UoqeaQ747.jpg,喜茶,2000人以上,2018-12-25 09:58:24,0,南山区,本科,,B轮,产品|需求|项目类,1天前发布,,,today,"移动互联网,生活服务",,0,全职,1545790480000,22.519366,2号线/蛇口线_登良;2号线/蛇口线_后海;2号线/蛇口线_科苑;11号线/机场线_后海,113.941993,0,,待遇好，平台大，氛围好,5385234,"可视化,数据运营",数据分析师,,8675114,2,56,9k-14k,0,数据分析,"可视化,数据运营",登良,2号线/蛇口线,数据分析,1-3年
0,0,1,"前海,南头,科技园",深圳,西安小青蛙影视文化传播有限公司,404222,,i/image2/M01/59/07/CgotOVsjZUiAFGBoAAAzInDvSc8640.jpg,小青蛙,15-50人,2018-12-25 10:02:06,0,南山区,本科,,A轮,开发|测试|运维类,1天前发布,,,today,"移动互联网,广告营销","大数据,物流",0,全职,1545795670000,22.541069,1号线/罗宝线_桃园,113.929045,0,,妹子多,5420018,"大数据,物流",大数据分析师,,8729528,0,0,25k-35k,0,数据开发,,桃园,1号线/罗宝线,数据分析,5-10年
0,0,1,"国贸,火车站,东门",深圳,深圳市阿卡索资讯股份有限公司,175284,"带薪年假,弹性工作,美女多,领导好",i/image/M00/B9/45/CgqKkVjChUCACLL9AAAiVsEQAZs360.png,阿卡索外教网,500-2000人,2018-12-26 10:12:08,0,罗湖区,本科,,B轮,产品|需求|项目类,10:12发布,,,today,"教育,移动互联网","教育,移动互联网,SQL,SPSS",0,全职,1545794284000,22.540801,2号线/蛇口线_大剧院;2号线/蛇口线_湖贝;1号线/罗宝线_老街;1号线/罗宝线_大剧院;3号线/龙岗线_老街;3号线/龙岗线_晒布;9号线_鹿丹村;9号线_人民南;9号线_向西村;9号线_文锦,114.121301,0,,"五险一金,周末双休,健身俱乐部,带薪年假",5229237,"教育,移动互联网,SQL,SPSS",数据分析师,,10471844,1,64,18k-30k,0,数据分析,"SQL,SPSS",鹿丹村,2号线/蛇口线,数据分析,3-5年
0,0,1,,深圳,深圳市环球易购电子商务有限公司,83025,"节日礼物,股票期权,带薪年假,绩效奖金",image1/M00/38/9F/CgYXBlWmIt6Af8k5AABvK21LZWM490.jpg?cc=0.211507520172745,环球易购,2000人以上,2018-12-14 10:30:55,0,南山区,本科,,上市公司,产品|需求|项目类,2018-12-14,,,threeDays,电子商务,"电商,大数据,SQL,数据库,可视化",0,全职,1545628228000,22.508997,,113.918725,0,,"大公司,上市公司,领导好,福利好",5228851,"电商,大数据,SQL,数据库,可视化",数据分析师,,5229800,4,53,15k-25k,0,数据分析,"SQL,数据库,可视化",,,数据分析,3-5年
0,0,1,,深圳,深圳市小赢科技有限责任公司,24587,"五险一金,两餐补助,超低息员工贷,年底奖金",i/image2/M01/B1/68/CgoB5lv-WkSAH5NIAAAHsuZjfIw784.png,小赢科技,500-2000人,2018-12-25 11:42:21,0,南山区,本科,,上市公司,产品|需求|项目类,1天前发布,,,today,金融,,0,全职,1545723802000,22.519131,2号线/蛇口线_登良;2号线/蛇口线_后海;2号线/蛇口线_科苑;11号线/机场线_后海,113.941779,0,,"绩效奖金,弹性工作,五险一金",5023727,,数据分析,,2694874,1,37,10k-20k,0,数据分析,,登良,2号线/蛇口线,数据分析,1-3年
0,0,1,"振华路,上步,华强北",深圳,深圳市油柑科技有限公司,385673,"绩效奖金,带薪年假,优秀团队,五险一金",i/image2/M00/4D/23/CgoB5lr74eSAeZiaAAAETTMB0wY864.png,油柑网,15-50人,2018-12-24 10:57:48,0,福田区,本科,,未融资,产品|需求|项目类,2天前发布,,,today,电子商务,电商,0,全职,1545802149000,22.543821,2号线/蛇口线_华强北;2号线/蛇口线_燕南;1号线/罗宝线_科学馆;1号线/罗宝线_华强路;3号线/龙岗线_华新;3号线/龙岗线_通新岭;7号线_赤尾;7号线_华强南;7号线_华强北;7号线_华新;7号线_黄木岗,114.08596,0,,晋升空间大,5312449,电商,数据分析师,,5508293,0,0,8k-15k,0,数据分析,,华强北,2号线/蛇口线,数据分析,1-3年
0,0,1,"东门,留医部,罗湖区委",深圳,深圳世联行地产顾问股份有限公司,11885,"五险一金,通讯津贴,带薪年假,年底双薪",image1/M00/00/17/Cgo8PFTUWEyAdVplAACPfhlUvwM417.png,世联行,2000人以上,2018-12-26 09:50:17,0,罗湖区,本科,,上市公司,产品|需求|项目类,09:50发布,,,today,企业服务,房产服务,0,全职,1545804184000,22.544938,2号线/蛇口线_湖贝;2号线/蛇口线_黄贝岭;1号线/罗宝线_老街;3号线/龙岗线_老街;3号线/龙岗线_晒布;3号线/龙岗线_翠竹;5号线/环中线_黄贝岭;9号线_人民南;9号线_向西村;9号线_文锦,114.127163,0,,公司平台大，发展前景好,3748570,房产服务,数据分析员,,148159,0,0,5k-7k,0,数据分析,,黄贝岭,2号线/蛇口线,数据分析,1-3年
0,0,1,"深大北门,科技园",深圳,深圳乐信软件技术有限公司,15175,"年终分红,绩效奖金,专项奖金,年底双薪",i/image/M00/3B/D0/CgpFT1lRzq-AEd2vAAA8awVHq_M312.jpg,乐信,2000人以上,2018-12-25 13:33:55,0,南山区,本科,,上市公司,开发|测试|运维类,1天前发布,,,today,移动互联网,"电商,数据仓库,数据挖掘",0,全职,1545803739000,22.538345,2号线/蛇口线_科苑;1号线/罗宝线_高新园;1号线/罗宝线_深大,113.944704,0,,年度旅游，定期体检，弹性工作，扁平管理,5452059,"电商,数据仓库,数据挖掘",数据分析工程师 (MJ000495),,11255221,1,5,15k-25k,0,数据开发,"数据仓库,数据挖掘",深大,2号线/蛇口线,建模,3-5年
0,0,1,"大冲,科技园",深圳,深圳爱拼信息科技有限公司,385,"发展迅猛,股票期权,数据驱动,美女多",i/image/M00/3C/E9/Cgp3O1dw546Aa0cBAAAaM0sAy2g209.jpg,iPIN.com,50-150人,2018-12-26 12:05:14,0,南山区,本科,,B轮,产品|需求|项目类,12:05发布,,,today,数据服务,,0,全职,1545788075000,22.549041,1号线/罗宝线_高新园;1号线/罗宝线_深大,113.943289,0,,AI风口行业 晋升机会大 团队大牛多,4857865,SQL,数据分析师,,396748,1,52,15k-30k,0,数据分析,SQL,深大,1号线/罗宝线,数据分析,1-3年
0,0,1,,深圳,北京字节跳动科技有限公司,62,"扁平管理,弹性工作,大厨定制三餐,就近租房补贴",i/image2/M01/79/0A/CgoB5ltr2A-AM5SFAADbT9jQCn841.jpeg,字节跳动,2000人以上,2018-12-25 22:54:16,0,宝安区,本科,,C轮,产品|需求|项目类,1天前发布,,,overSevenDays,"移动互联网,数据服务",数据分析,0,全职,1543919998000,22.548721,,22.548721,0,,六险一金，弹性工作，免费三餐，餐补,5120858,数据分析,数据分析师,,5029153,0,0,15k-30k,0,数据分析,,,,数据分析,1-3年
0,0,1,"科技园,大冲",深圳,北京通力互联技术服务有限公司,123777,"绩效奖金,交通补助,定期体检,通讯津贴",i/image/M00/2E/03/CgqKkVc9jmCAI8DpAAD09YLPnBk157.png,通力互联,2000人以上,2018-12-24 15:22:54,0,南山区,本科,,不需要融资,产品|需求|项目类,2天前发布,,,today,"电子商务,企业服务",大数据,0,全职,1545795297000,22.546344,1号线/罗宝线_高新园;1号线/罗宝线_深大,113.947593,0,,"五险一金,带薪年假,年终奖,年底双薪",4595405,大数据,数据分析师,,9328764,0,0,10k-15k,0,数据分析,,深大,1号线/罗宝线,数据分析,1-3年
0,0,1,"深圳湾,科技园",深圳,神策网络科技（北京）有限公司,102685,"节日礼物,年底双薪,股票期权,带薪年假",i/image/M00/8F/BF/CgpEMlrxAzKAFeRKAAAhk0Nn8UY119.png,神策数据,150-500人,2018-12-23 14:29:03,0,南山区,本科,,C轮,产品|需求|项目类,3天前发布,,,today,数据服务,"大数据,商业,BI,可视化",0,全职,1545792453000,22.528953,2号线/蛇口线_后海;2号线/蛇口线_科苑;1号线/罗宝线_深大;11号线/机场线_后海,113.945036,0,,"五险一金,午餐补助,补充医疗,14薪",4757404,"大数据,商业,BI,可视化",数据分析师-深圳,,2877158,0,0,15k-25k,0,数据分析,"商业,BI,可视化",深大,2号线/蛇口线,数据分析,3-5年
0,0,1,"水贝,田贝,翠竹",深圳,深圳市朗辰信息科技有限公司,346280,"绩效奖金,包午餐晚餐,定期体检,扁平管理",i/image2/M01/AD/FC/CgoB5lv0_6SAeaesAAAN1a8axYA382.jpg,朗辰科技,15-50人,2018-12-26 10:02:21,0,罗湖区,本科,,不需要融资,产品|需求|项目类,10:02发布,,,today,数据服务、移动互联网,"云计算,大数据,数据库",0,全职,1545809328000,22.570901,3号线/龙岗线_田贝;3号线/龙岗线_水贝;5号线/环中线_布心;5号线/环中线_太安;7号线_洪湖;7号线_田贝;7号线_太安,114.128931,0,,行业背景好，绩效年终奖，包工作餐,5389184,"云计算,大数据,数据库",数据分析师,,144321,1,100,10k-20k,0,数据分析,数据库,洪湖,7号线,数据分析,5-10年
0,0,1,"前海,南头,科技园",深圳,深圳金风信用科技有限公司,384731,"股票期权,专项奖金,餐补,年终分红",i/image2/M00/4C/F8/CgotOVr7AJ-AF1pCAAASlFls4_s746.jpg,借帮帮,50-150人,2018-12-12 17:04:00,0,南山区,本科,,天使轮,产品|需求|项目类,2018-12-12,,,today,"移动互联网,金融",,0,全职,1545805969000,22.532937,1号线/罗宝线_桃园;1号线/罗宝线_大新;11号线/机场线_南山,113.926482,0,,"领导好,水果酸奶,近地铁",5418640,,数据分析,,11529409,0,2,10k-20k,0,数据分析,,大新,1号线/罗宝线,数据分析,1-3年
0,0,1,"新安,翻身路",深圳,维沃移动通信有限公司,19875,"年终分红,带薪年假,年度旅游,岗位晋升",image1/M00/00/25/Cgo8PFTUWH-Ab57wAABKOdLbNuw116.png,vivo,2000人以上,2018-12-24 16:01:55,0,宝安区,本科,,未融资,开发|测试|运维类,2天前发布,,,threeDays,移动互联网,"大数据,数据挖掘",0,全职,1545623026000,22.551716,1号线/罗宝线_新安;1号线/罗宝线_宝安中心;1号线/罗宝线_宝体;5号线/环中线_临海;5号线/环中线_宝华;5号线/环中线_宝安中心;5号线/环中线_翻身;11号线/机场线_宝安,113.88742,0,,"交通便利,福利好,氛围好",3740254,"大数据,数据挖掘",大数据分析师,,302876,2,100,25k-50k,0,数据开发,数据挖掘,宝安中心,5号线/环中线,数据分析,5-10年
0,0,0,松岗,深圳,深圳市银泰亨信息技术有限公司,478181,,images/logo_default.png,银泰,15-50人,2018-12-18 02:44:16,0,宝安区,本科,,天使轮,金融类,2018-12-18,,,today,金融,"证券/期货,策略设计",0,全职,1545763221000,22.762941,,113.854126,0,,工作时间相对自由,5431942,"证券/期货,策略设计",数据分析师,,12057677,0,0,20k-21k,0,互联网金融,策略设计,,,分析师,1-3年
0,0,1,"白石洲,大冲,科技园",深圳,中腾信金融信息服务（上海）有限公司,35112,"节日礼物,年底多薪,绩效奖金,岗位晋升",image1/M00/00/53/Cgo8PFTUXRaAJMASAAA4tgqd6o4861.png,中腾信,2000人以上,2018-12-25 14:39:33,0,南山区,本科,,不需要融资,产品|需求|项目类,1天前发布,,"免费休闲游,免费体检,地铁周边,6险1金,前景无限好",today,金融,金融,0,全职,1545807706000,22.540772,1号线/罗宝线_白石洲;1号线/罗宝线_高新园;1号线/罗宝线_深大,113.953243,0,,"年终奖,六险一金,平台大,五天7小时",4338286,金融,互联网金融数据分析师,,9183834,0,0,12k-18k,0,数据分析,,深大,1号线/罗宝线,数据分析,3-5年
0,0,1,"上步,中信广场,振华路",深圳,深圳云天励飞技术有限公司,95529,"节日礼物,带薪年假,年度旅游,开放务实",i/image/M00/45/77/CgqKkVeIdGiANSx7AAAVacVYVAo280.JPG,云天励飞,500-2000人,2018-12-14 10:46:35,0,福田区,本科,,A轮,开发|测试|运维类,2018-12-14,,,threeDays,移动互联网,"云计算,大数据,数据挖掘",0,全职,1545615546000,22.542356,2号线/蛇口线_华强北;2号线/蛇口线_燕南;2号线/蛇口线_大剧院;1号线/罗宝线_大剧院;1号线/罗宝线_科学馆;1号线/罗宝线_华强路;3号线/龙岗线_华新;3号线/龙岗线_通新岭;3号线/龙岗线_红岭;7号线_华强南;7号线_华强北;7号线_华新;9号线_红岭;9号线_红岭南,114.096167,0,,"核心技术部,核心团队,发展平台好,公司福利好",4375423,"云计算,大数据,数据挖掘",数据分析工程师,,8320674,0,0,15k-30k,0,数据开发,数据挖掘,华强北,2号线/蛇口线,数据分析,3-5年
0,0,1,"蛇口,南油,海王大厦",深圳,深圳市环球易购,61474,"年底双薪,节日礼物,技能培训,年度旅游",i/image2/M00/03/02/CgoB5lnBz_eAXI9JAAAcmVMB_5A953.jpg,深圳市环球易购,500-2000人,2018-12-26 11:06:46,0,南山区,本科,,上市公司,贸易|批发|零售|租赁业,11:06发布,,,today,电子商务,电商,0,全职,1545803262000,22.515272,11号线/机场线_南山,113.922988,0,,excel,5232921,电商,数据分析师,,11856231,0,0,5k-9k,0,贸易,,南山,11号线/机场线,贸易|外贸专员|助理,不限
0,0,1,华侨城,深圳,深圳大数易智慧科技有限公司,431443,"年底双薪,股票期权,绩效奖金,专项奖金",i/image2/M01/77/C3/CgoB5ltpTZmAX3LuAAAHbN0XFII004.png,BDS大数易,少于15人,2018-12-17 08:40:46,0,南山区,本科,,天使轮,开发|测试|运维类,2018-12-17,,,overSevenDays,人工智能,"大数据,MySQL",0,全职,1545180018000,22.550908,2号线/蛇口线_侨城北;7号线_桃源村;7号线_深云,113.981429,0,,"发展空间大,加薪空间大,能力说话",5057865,"大数据,MySQL",数据分析师,,11431596,0,0,10k-16k,0,数据开发,MySQL,桃源村,2号线/蛇口线,数据分析,3-5年
0,0,1,"科技园,南山医院,大冲",深圳,北京思恩客科技有限公司,56521,"节日礼物,岗位晋升,领导好,美女多",i/image/M00/2E/5C/Cgp3O1c-0TOACNhHAAAQbvzoocM511.png,蓝色光标SNK,150-500人,2018-12-24 16:46:16,0,南山区,本科,,不需要融资,市场|商务类,2天前发布,,,disabled,"移动互联网,游戏","广告营销,媒体,市场",0,全职,1545722733000,22.548341,1号线/罗宝线_高新园;1号线/罗宝线_深大,113.9446,0,,平台好,3307004,"广告营销,媒体,市场",数据分析师/高级数据分析师,,7874903,0,0,6k-8k,0,市场|营销,市场,深大,1号线/罗宝线,市场营销,1-3年
0,0,1,"白石洲,大冲,科技园",深圳,深圳市立业贷互联网金融服务有限公司,67920,"节日礼物,技能培训,绩效奖金,年度旅游",i/image/M00/23/D8/Cgp3O1cYh8KALvPUAAASxn_N6Io707.jpg,立业贷,50-150人,2018-12-26 08:28:02,0,南山区,硕士,,不需要融资,金融类,08:28发布,,,today,金融,,0,全职,1545807937000,22.542201,1号线/罗宝线_白石洲;1号线/罗宝线_高新园;1号线/罗宝线_深大,113.953376,0,,五险一金,5429570,p2p产品,风控建模/数据分析,,1659931,4,8,15k-30k,0,互联网金融,p2p产品,深大,1号线/罗宝线,分析师,1-3年
0,0,1,"科技园,大冲",深圳,北京通力互联技术服务有限公司,123777,"绩效奖金,交通补助,定期体检,通讯津贴",i/image/M00/2E/03/CgqKkVc9jmCAI8DpAAD09YLPnBk157.png,通力互联,2000人以上,2018-12-24 15:23:01,0,南山区,大专,,不需要融资,产品|需求|项目类,2天前发布,,,today,"电子商务,企业服务","大数据,商业",0,全职,1545795297000,22.53842,2号线/蛇口线_科苑;1号线/罗宝线_高新园;1号线/罗宝线_深大,113.948041,0,,"五险一金,上下班车,早晚餐,培训机制",4465656,"大数据,商业",数据分析,,9328764,0,0,6k-9k,0,数据分析,商业,深大,2号线/蛇口线,数据分析,1-3年
0,0,1,,深圳,深圳嘉悦美业有限公司,425530,,i/image2/M01/77/08/CgotOVtn_0aACZ29AABQBoCEHBk956.png,嘉悦国际,150-500人,2018-12-24 16:00:46,0,龙华新区,本科,,未融资,开发|测试|运维类,2天前发布,,,threeDays,O2O 移动互联网,,0,全职,1545638329000,22.604715,4号线/龙华线_民乐,114.057696,0,,团队好,5283300,,数据分析师,,11395266,0,0,10k-15k,0,数据开发,,民乐,4号线/龙华线,数据分析,3-5年
0,0,1,"科技园,白石洲,大冲",深圳,平安科技（深圳）有限公司,24748,"节日礼物,年度旅游,岗位晋升,技能培训",i/image/M00/7D/7C/Cgp3O1hHwlSAXh_pAACcLWenfL8606.jpg,平安科技,2000人以上,2018-12-26 00:00:15,0,南山区,本科,,不需要融资,开发|测试|运维类,00:00发布,,,today,金融,"大数据,云计算,Hadoop,Spark,数据挖掘",0,全职,1545804943000,22.538492,1号线/罗宝线_白石洲;1号线/罗宝线_高新园;1号线/罗宝线_深大,113.957451,0,,"五险一金,带薪年假,节日福利,绩效奖金",5409676,"大数据,云计算,Hadoop,Spark,数据挖掘",11124Z-数据分析工程师-云技术服务,,811225,4,35,20k-40k,0,数据开发,"Hadoop,Spark,数据挖掘",深大,1号线/罗宝线,数据分析,3-5年
0,0,1,,深圳,中信银行股份有限公司信用卡中心,26536,"互联网金融,节日礼物,绩效奖金,年度旅游",image1/M00/3D/11/CgYXBlW3O4eAIyyZAAA9el86yAw282.png,中信银行信用卡中心,2000人以上,2018-11-30 17:29:00,0,,本科,,上市公司,产品|需求|项目类,2018-11-30,,"试用期上社保,试用期上公积金,话费补助,免费体检,地铁周边,每月餐补,5险1金,晋升机制,开工利是红包",sevenDays,"移动互联网,金融",,0,全职,1545546755000,22.535463,2号线/蛇口线_莲花西;2号线/蛇口线_福田;2号线/蛇口线_市民中心;4号线/龙华线_会展中心;4号线/龙华线_市民中心;1号线/罗宝线_会展中心;1号线/罗宝线_购物公园;1号线/罗宝线_香蜜湖;3号线/龙岗线_石厦;3号线/龙岗线_购物公园;3号线/龙岗线_福田;11号线/机场线_福田;7号线_石厦,114.050484,0,,金融行业 大数据分析 数据挖掘,4860791,,数据分析,,2659590,0,0,25k-50k,0,数据分析,,石厦,2号线/蛇口线,数据分析,3-5年
0,0,1,"上梅林,下梅林",深圳,深圳依时货拉拉科技有限公司,41178,"技能培训,专项奖金,绩效奖金,扁平管理",image1/M00/00/66/Cgo8PFTUXWSACW7OAACKSYYZpsc111.png,货拉拉,2000人以上,2018-12-19 10:32:24,0,福田区,本科,,C轮,开发|测试|运维类,2018-12-19,,,today,"移动互联网,O2O",,0,全职,1545804866000,114.059297,,22.569103,0,,"互联网,独角兽,氛围好",4908000,MySQL,数据分析(J11352),,765920,4,13,15k-30k,0,数据开发,MySQL,,,数据分析,1-3年
0,0,1,,深圳,深圳前海全民通金融资本控股集团有限公司,187317,,i/image/M00/08/59/CgpEMljaAFGAIuUQAAALknL3rU0048.png,全民通控股,500-2000人,2018-12-24 15:32:49,0,南山区,本科,,不需要融资,产品|需求|项目类,2天前发布,,,disabled,移动互联网,"大数据,SPSS",1,全职,1545788232000,22.54554,1号线/罗宝线_高新园;1号线/罗宝线_深大,113.946903,0,,"五险一金,带薪年假,年终奖,年底双薪",4595381,"大数据,SPSS",数据分析师,,7480759,0,0,10k-15k,0,数据分析,SPSS,深大,1号线/罗宝线,数据分析,应届毕业生
0,0,1,"大冲,科技园",深圳,深圳前海亚农产业链科技有限公司,298284,,i/image2/M01/B6/94/CgoB5lwOFM2AWvk9AAAzcyeUdMI234.png,前海亚农,50-150人,2018-12-26 09:20:51,0,南山区,大专,,不需要融资,产品|需求|项目类,09:20发布,,,overSevenDays,"移动互联网,电子商务","电商,数据运营",0,全职,1544427421000,22.543897,1号线/罗宝线_高新园;1号线/罗宝线_深大,113.94625,0,,薪资高 老板nice,5311198,"电商,数据运营",商业数据分析师,,5588579,0,0,10k-15k,0,数据分析,数据运营,深大,1号线/罗宝线,数据分析,3-5年
0,0,1,"蛇口,海上世界",深圳,试金石信用服务有限公司,135243,"年终奖金,绩效奖金,餐补交通补,过节费",i/image/M00/46/C5/CgqKkVeNpFqAa0jHAAAlArZ_2a8133.png,试金石信用,50-150人,2018-12-24 16:46:04,0,南山区,本科,,不需要融资,产品|需求|项目类,2天前发布,,,today,"数据服务,移动互联网",,0,全职,1545805044000,22.491449,2号线/蛇口线_海上世界;2号线/蛇口线_水湾,113.916355,0,,行业前景好、大牛团队,2225601,,数据分析师,,5746492,2,100,15k-30k,0,数据分析,,海上世界,2号线/蛇口线,数据分析,3-5年
0,0,1,,深圳,岩心科技（深圳）有限公司,107664,"美女如云,股票期权,高速发展,扁平管理",i/image/M00/73/04/Cgp3O1gteKCAMVdbAAApNp8Trz8758.png,AKULAKU,500-2000人,2018-12-25 10:22:54,0,南山区,不限,,C轮,开发|测试|运维类,1天前发布,,,today,"移动互联网,金融",,0,全职,1545806024000,22.529035,2号线/蛇口线_后海;2号线/蛇口线_科苑;1号线/罗宝线_深大;11号线/机场线_后海,113.943847,0,,海外经验,5432470,"MySQL,SQLServer",数据分析师／风控反欺诈／海外消费金融,,7607347,1,56,15k-25k,0,数据开发,"MySQL,SQLServer",深大,2号线/蛇口线,数据分析,不限
0,0,1,"科技园,科技园,南头",深圳,招联消费金融有限公司,38075,"节日礼物,技能培训,绩效奖金,岗位晋升",image1/M00/00/5C/CgYXBlTUXTyAYL4UAABHA5aGqRw843.jpg,招联金融,500-2000人,2018-12-24 08:58:29,0,南山区,本科,,不需要融资,产品|需求|项目类,2天前发布,,,today,金融,,0,全职,1545808826000,22.548179,1号线/罗宝线_高新园;1号线/罗宝线_深大,113.943551,0,,初创公司，朝阳行业，广阔的发展空间,422119,,数据分析工程师,,684124,2,100,18k-28k,0,数据分析,,深大,1号线/罗宝线,数据分析,3-5年
0,0,1,,深圳,深圳市珍爱网信息技术有限公司,6718,"发展上升型,朝阳行业,创业氛围浓厚,年终分红",image1/M00/00/0E/CgYXBlTUWCaARrveAABvE1mqO8Q477.jpg,珍爱网,2000人以上,2018-12-12 16:29:22,0,南山区,本科,,不需要融资,开发|测试|运维类,2018-12-12,,,today,"社交网络,生活服务","大数据,MySQL",0,全职,1545796229000,22.519682,2号线/蛇口线_登良;2号线/蛇口线_后海;2号线/蛇口线_科苑;11号线/机场线_后海,113.94225,0,,发展前景好，团队氛围棒,5386332,"大数据,MySQL",数据分析师,,193221,2,21,11k-18k,0,数据开发,MySQL,登良,2号线/蛇口线,数据分析,1-3年
0,0,1,"益田村,新洲",深圳,北京希为科技有限公司,165533,"股票期权,带薪年假,绩效奖金,弹性工作",i/image2/M01/90/26/CgotOVuiEd6AWn3uAAAYsmvaknc020.png,希为科技,15-50人,2018-12-25 11:14:42,0,福田区,本科,,不需要融资,产品|需求|项目类,1天前发布,,,disabled,"企业服务,金融",,0,全职,1545707661000,22.507997,7号线_沙尾,114.045644,0,,"技术领先,14薪,六险一金,团队优秀",4568696,SQL,数据分析师,,6752537,1,24,15k-25k,0,数据分析,SQL,沙尾,7号线,数据分析,3-5年
0,0,0,"上沙,车公庙",深圳,深圳市宏禧聚信广告有限公司,335067,"绩效奖金,定期体检,技能培训,五险一金",i/image2/M01/B6/EE/CgoB5lwPGeWAJFjQAAAVMwUmcWo062.png,宏禧聚信,50-150人,2018-12-25 15:07:24,0,福田区,本科,,未融资,开发|测试|运维类,1天前发布,,,today,"广告营销,文化娱乐",,0,全职,1545787583000,22.526226,1号线/罗宝线_香蜜湖;1号线/罗宝线_车公庙;11号线/机场线_车公庙;7号线_车公庙;7号线_上沙;7号线_沙尾;9号线_下沙;9号线_车公庙,114.035963,0,,团队融洽,5379442,"数据挖掘,数据仓库",数据分析师,,9096551,1,100,20k-30k,0,数据开发,"数据挖掘,数据仓库",车公庙,7号线,数据分析,5-10年
0,0,1,"香蜜湖,景田,莲花北村",深圳,深圳钱来网金融信息服务有限公司,135959,,i/image/M00/50/6F/CgqKkVez-kSAd4d4AABmZ9mupv0404.png,钱来网,150-500人,2018-12-24 10:31:47,0,福田区,本科,,A轮,产品|需求|项目类,2天前发布,,,today,金融,"金融,数据运营",0,全职,1545794920000,22.993238,,113.994059,0,,扁平化管理 发挥空间大,5404644,"金融,数据运营",数据分析,,5449912,0,0,10k-15k,0,数据分析,数据运营,,,数据分析,3-5年
0,0,1,"大冲,科技园",深圳,深圳世联行地产顾问股份有限公司,11885,"五险一金,通讯津贴,带薪年假,年底双薪",image1/M00/00/17/Cgo8PFTUWEyAdVplAACPfhlUvwM417.png,世联行,2000人以上,2018-12-26 09:50:22,0,南山区,本科,,上市公司,产品|需求|项目类,09:50发布,,,today,企业服务,"大数据,BI",0,全职,1545804184000,22.541245,1号线/罗宝线_高新园;1号线/罗宝线_深大,113.94157,0,,"上市集团,内部正编,大平台,发展空间大",5228770,"大数据,BI",数据分析专员,,148159,0,0,5k-10k,0,数据分析,BI,深大,1号线/罗宝线,数据分析,3-5年
0,0,1,后海,深圳,深圳正源汽车科技有限公司,381230,,i/image/M00/90/10/CgpEMlryZcuALdF-AAAYWt8YV7E887.png,正源汽车科技有限公司,15-50人,2018-12-25 16:57:33,0,南山区,本科,,上市公司,开发|测试|运维类,1天前发布,,"免费休闲游,免费体检,5险1金",today,"移动互联网,金融","汽车,互联网金融",0,全职,1545728243000,22.522872,2号线/蛇口线_后海;2号线/蛇口线_科苑;11号线/机场线_南山;11号线/机场线_后海,113.937833,0,,上市公司 五险一金 福利待遇高,5325323,"汽车,互联网金融",数据分析经理,,10765443,0,100,15k-25k,0,数据开发,,南山,2号线/蛇口线,数据分析,3-5年
0,0,1,"大冲,科技园",深圳,深圳爱布丁梦想科技有限公司,77018,"股票期权,绩效奖金,岗位晋升,六险一金",image2/M00/05/D0/CgqLKVX3_GyAIo_5AAAUeKYKET4379.png,点点租,150-500人,2018-11-26 11:15:04,0,南山区,本科,,B轮,产品|需求|项目类,2018-11-26,,,sevenDays,O2O,"移动互联网,房产服务,数据运营",0,全职,1545206620000,22.548685,1号线/罗宝线_深大,113.94208,0,,"团队氛围好,双休,有付出有收,妹子帅哥多",5329879,"移动互联网,房产服务,数据运营",数据分析师,,11088230,1,100,10k-13k,0,数据分析,数据运营,深大,1号线/罗宝线,数据分析,1-3年
0,0,1,"科技园,南山医院,大冲",深圳,北京思恩客科技有限公司,56521,"节日礼物,岗位晋升,领导好,美女多",i/image/M00/2E/5C/Cgp3O1c-0TOACNhHAAAQbvzoocM511.png,蓝色光标SNK,150-500人,2018-12-24 16:46:18,0,南山区,本科,,不需要融资,开发|测试|运维类,2天前发布,,,disabled,"移动互联网,游戏","广告营销,游戏",0,全职,1545722733000,22.548341,1号线/罗宝线_高新园;1号线/罗宝线_深大,113.9446,0,,"4A公司,平台大,晋升快",3966634,"广告营销,游戏",数据分析专员,,7874903,0,0,5k-8k,0,数据开发,,深大,1号线/罗宝线,数据分析,不限
0,0,1,科技园,深圳,深圳市曾点信息技术培训有限公司,173366,,i/image/M00/A6/A1/Cgp3O1itIAeAHioDAAA7hv5mYDc828.jpg,曾点,150-500人,2018-11-29 14:04:50,0,南山区,大专,,不需要融资,产品|需求|项目类,2018-11-29,,,today,移动互联网、企业服务,"大数据,可视化",1,全职,1545789375000,22.525353,2号线/蛇口线_后海;2号线/蛇口线_科苑;11号线/机场线_后海,113.939728,0,,"班车接送,年终奖,五险一金,办公环境好",4832965,"大数据,可视化",数据分析,,11199460,0,0,5k-7k,0,数据分析,可视化,科苑,2号线/蛇口线,数据分析,应届毕业生
0,0,1,西丽,深圳,深圳库尚信息技术有限公司,201020,"年底双薪,定期体检,带薪年假,绩效奖金",i/image3/M00/38/D1/Cgq2xlqqUMiAWMN9AAAdDL9WS6c659.jpg,shein,2000人以上,2018-12-25 11:55:20,0,南山区,本科,,B轮,开发|测试|运维类,1天前发布,,,today,电子商务,"大数据,电商,MySQL,Oracle,Java",0,全职,1545804284000,22.584499,5号线/环中线_大学城,113.971272,0,,牛人共事 行业前景好 国际品牌,5146880,"大数据,电商,MySQL,Oracle,Java",数据分析师,,120611,1,1,18k-30k,0,数据开发,"MySQL,Oracle,Java",大学城,5号线/环中线,数据分析,3-5年
0,0,1,"西丽,大冲,科技园",深圳,北京通力互联技术服务有限公司,123777,"绩效奖金,交通补助,定期体检,通讯津贴",i/image/M00/2E/03/CgqKkVc9jmCAI8DpAAD09YLPnBk157.png,通力互联,2000人以上,2018-12-24 15:23:01,0,南山区,本科,,不需要融资,运营|编辑|客服类,2天前发布,,,today,"电子商务,企业服务","广告营销,运营",0,全职,1545795297000,22.556374,,113.94679,0,,"周末双休,免费早晚餐,福利齐全,美女如云",4582376,"广告营销,运营",助理数据分析师-高科技事业部,,9328764,0,0,6k-8k,0,运营,运营,,,其他运营,1-3年
0,0,1,"华强北,振华路,上步",深圳,海恩思（深圳）信息科技有限公司,158303,,i/image/M00/73/9C/CgqKkVgu0HqAEysPAABlLQGNHWo396.png,海恩思科技,少于15人,2018-12-21 11:37:50,0,福田区,本科,,天使轮,产品|需求|项目类,2018-12-21,,,disabled,"医疗健康,硬件","医疗健康,移动互联网,SPSS",0,全职,1545790625000,22.541122,2号线/蛇口线_华强北;2号线/蛇口线_燕南;1号线/罗宝线_科学馆;1号线/罗宝线_华强路;3号线/龙岗线_华新;3号线/龙岗线_通新岭;7号线_赤尾;7号线_华强南;7号线_华强北;7号线_华新,114.086105,0,,年终奖 社保 前景好,5444747,"医疗健康,移动互联网,SPSS",数据分析工程师,,6499037,0,0,10k-20k,0,数据分析,SPSS,华强北,2号线/蛇口线,数据分析,1-3年
0,0,1,,深圳,深圳微众税银信息服务有限公司,321001,"年底双薪,午餐补助,年终分红,绩效奖金",i/image3/M00/3A/04/Cgq2xlqrmUuAceylAAEqBwqwwcw567.jpg,微众税银,150-500人,2018-12-21 13:37:58,0,南山区,硕士,,C轮,产品|需求|项目类,2018-12-21,,,today,"金融,数据服务",大数据,0,全职,1545786920000,22.545767,1号线/罗宝线_高新园;1号线/罗宝线_深大,113.940875,0,,"发展空间,公司福利好",4130779,大数据,数据分析师,,2155375,1,100,10k-18k,0,数据分析,,深大,1号线/罗宝线,数据分析,不限
0,0,1,上梅林,深圳,深圳依时货拉拉科技有限公司,41178,"技能培训,专项奖金,绩效奖金,扁平管理",image1/M00/00/66/Cgo8PFTUXWSACW7OAACKSYYZpsc111.png,货拉拉,2000人以上,2018-12-19 11:08:23,0,福田区,本科,,C轮,产品|需求|项目类,2018-12-19,,,today,"移动互联网,O2O",,0,全职,1545804866000,114.060162,,22.570148,0,,"互联网,独角兽,氛围好",4995486,"SQL,SPSS,数据运营",数据分析-2019校园招聘(J11421),,765920,4,13,8k-12k,0,数据分析,"SQL,SPSS,数据运营",,,数据分析,1年以下
0,0,1,"下沙,车公庙",深圳,乐格商业咨询（深圳）有限公司,7918,"节日礼物,技能培训,职业发展预期,岗位晋升",image1/M00/00/10/CgYXBlTUWDCAQVX7AAA9lpVGy1w731.png,乐格信息,150-500人,2018-12-24 09:23:56,0,福田区,大专,,A轮,产品|需求|项目类,2天前发布,,,threeDays,"企业服务,数据服务",地图,0,全职,1545614621000,22.530679,1号线/罗宝线_车公庙;1号线/罗宝线_竹子林;11号线/机场线_车公庙;7号线_农林;7号线_车公庙;7号线_上沙;9号线_下沙;9号线_车公庙,114.024615,0,,"五险一金,带薪年假,欢迎应届生,周末双休",3867572,地图,数据分析师,,8686142,0,0,3k-5k,0,数据分析,,农林,7号线,数据分析,1年以下
0,0,1,"新安,翻身路",深圳,维沃移动通信有限公司,19875,"年终分红,带薪年假,年度旅游,岗位晋升",image1/M00/00/25/Cgo8PFTUWH-Ab57wAABKOdLbNuw116.png,vivo,2000人以上,2018-12-17 18:56:16,0,宝安区,本科,,未融资,产品|需求|项目类,2018-12-17,,,today,移动互联网,"移动互联网,通信/网络设备,SPSS,SQL,数据库",0,全职,1545796434000,22.551716,1号线/罗宝线_新安;1号线/罗宝线_宝安中心;1号线/罗宝线_宝体;5号线/环中线_临海;5号线/环中线_宝华;5号线/环中线_宝安中心;5号线/环中线_翻身;11号线/机场线_宝安,113.88742,0,,丰厚年终奖，发展机会大，工作环境好,5431597,"移动互联网,通信/网络设备,SPSS,SQL,数据库",数据分析经理,,4036782,0,0,25k-40k,0,数据分析,"SPSS,SQL,数据库",宝安中心,5号线/环中线,数据分析,3-5年
